{
"type": "FeatureCollection",
"features": [
{ "type": "Feature", "id": 0, "properties": { "OBJECTID": 159, "Group_Code": "WOTR", "Unit_Code": "WOTR", "Label": "South Gate Service Stand", "Common_Nam": "South Gate Service Stand", "Point_Type": 0, "Point_Ty_1": "Center", "Is_Extant": "Y", "Is_Sensiti": "N", "Source_Dat": "2002\/04\/01", "Edit_Date": "2008\/12\/12", "Map_Method": "DERV", "Map_Source": "ArcGIS feature to point tool was used.", "Point_Note": "Points were create by RIMD.", "Admin_Type": "Federal", "Federal_En": 58513, "Building_F": 83032, "FMSS_ID": "44133", "LCS_ID": "", "ASMIS_ID": "", "Park_ID": "", "DESCRIPTIO": "South Gate Service Stand", "STREET": "1551 Trap Road", "CITY": "Vienna", "COUNTY": "FAIRFAX", "STATE": "VA", "ZIPCODE": "22182", "SZIPCODE": "1643", "Building_I": "{847F1E36-9E25-45A0-A2F3-700AEDC2C6B9}", "Geometry_I": "{8F43329F-A096-4BCF-8398-F6BDC96FF62C}" }, "geometry": { "type": "Point", "coordinates": [ 303665.981609, 4312125.367521 ] } }
,
{ "type": "Feature", "id": 1, "properties": { "OBJECTID": 163, "Group_Code": "WOTR", "Unit_Code": "WOTR", "Label": "Box Office Trailer", "Common_Nam": "Box Office Trailer", "Point_Type": 0, "Point_Ty_1": "Center", "Is_Extant": "Y", "Is_Sensiti": "N", "Source_Dat": "2002\/04\/01", "Edit_Date": "2008\/12\/12", "Map_Method": "DERV", "Map_Source": "ArcGIS feature to point tool was used.", "Point_Note": "Points were create by RIMD.", "Admin_Type": "Federal", "Federal_En": 58513, "Building_F": 82048, "FMSS_ID": "44122", "LCS_ID": "", "ASMIS_ID": "", "Park_ID": "", "DESCRIPTIO": "Box Office Trailer", "STREET": "1551 Trap Road", "CITY": "Vienna", "COUNTY": "FAIRFAX", "STATE": "VA", "ZIPCODE": "22182", "SZIPCODE": "1643", "Building_I": "{D0C1AD4F-1771-41CC-8BA1-D44B8889BB4A}", "Geometry_I": "{02CF5360-7937-4DB1-A9EF-358D030B8749}" }, "geometry": { "type": "Point", "coordinates": [ 303602.780712, 4312155.265151 ] } }
,
{ "type": "Feature", "id": 2, "properties": { "OBJECTID": 171, "Group_Code": "WOTR", "Unit_Code": "WOTR", "Label": "USPP and Usher Trailer", "Common_Nam": "USPP and Usher Trailer", "Point_Type": 0, "Point_Ty_1": "Center", "Is_Extant": "Y", "Is_Sensiti": "N", "Source_Dat": "2002\/04\/01", "Edit_Date": "2008\/12\/12", "Map_Method": "DERV", "Map_Source": "ArcGIS feature to point tool was used.", "Point_Note": "Points were create by RIMD.", "Admin_Type": "Federal", "Federal_En": 58513, "Building_F": 83032, "FMSS_ID": "44125", "LCS_ID": "", "ASMIS_ID": "", "Park_ID": "", "DESCRIPTIO": "USPP and Usher Trailer", "STREET": "1551 Trap Road", "CITY": "Vienna", "COUNTY": "FAIRFAX", "STATE": "VA", "ZIPCODE": "22182", "SZIPCODE": "1643", "Building_I": "{9C4C34CD-A0BD-4B11-9C6B-1665DFC920EF}", "Geometry_I": "{3AEADD5C-9E52-4576-93F8-61ADE233D75F}" }, "geometry": { "type": "Point", "coordinates": [ 303586.220464, 4312152.171127 ] } }
,
{ "type": "Feature", "id": 3, "properties": { "OBJECTID": 197, "Group_Code": "WOTR", "Unit_Code": "WOTR", "Label": "Smokehouse", "Common_Nam": "Smokehouse", "Point_Type": 0, "Point_Ty_1": "Center", "Is_Extant": "Y", "Is_Sensiti": "N", "Source_Dat": "2002\/04\/01", "Edit_Date": "2008\/12\/12", "Map_Method": "DERV", "Map_Source": "ArcGIS feature to point tool was used.", "Point_Note": "Points were create by RIMD.", "Admin_Type": "Federal", "Federal_En": 58513, "Building_F": 83032, "FMSS_ID": "44216", "LCS_ID": "", "ASMIS_ID": "", "Park_ID": "", "DESCRIPTIO": "Smokehouse", "STREET": "1551 Trap Road", "CITY": "Vienna", "COUNTY": "FAIRFAX", "STATE": "VA", "ZIPCODE": "22182", "SZIPCODE": "1643", "Building_I": "{E26737F7-1230-4F2C-B0F9-C1A3464CF438}", "Geometry_I": "{571C750F-A545-400C-A804-76DB86149C37}" }, "geometry": { "type": "Point", "coordinates": [ 303662.968748, 4312257.000097 ] } }
,
{ "type": "Feature", "id": 4, "properties": { "OBJECTID": 198, "Group_Code": "WOTR", "Unit_Code": "WOTR", "Label": "Ranger Station", "Common_Nam": "Ranger Station", "Point_Type": 0, "Point_Ty_1": "Center", "Is_Extant": "Y", "Is_Sensiti": "N", "Source_Dat": "2002\/04\/01", "Edit_Date": "2008\/12\/12", "Map_Method": "DERV", "Map_Source": "ArcGIS feature to point tool was used.", "Point_Note": "Points were create by RIMD.", "Admin_Type": "Federal", "Federal_En": 58513, "Building_F": 82048, "FMSS_ID": "44217", "LCS_ID": "", "ASMIS_ID": "", "Park_ID": "", "DESCRIPTIO": "Ranger Station", "STREET": "1551 Trap Road", "CITY": "Vienna", "COUNTY": "FAIRFAX", "STATE": "VA", "ZIPCODE": "22182", "SZIPCODE": "1643", "Building_I": "{544BC7B3-223A-45E5-A6BB-96128EBCD35B}", "Geometry_I": "{9EBEC708-A494-4517-ACB4-3ECAF8EA5F6C}" }, "geometry": { "type": "Point", "coordinates": [ 303651.053764, 4312255.873061 ] } }
,
{ "type": "Feature", "id": 5, "properties": { "OBJECTID": 199, "Group_Code": "WOTR", "Unit_Code": "WOTR", "Label": "Associates Building (Food & Beverage)", "Common_Nam": "Associates Building (Food & Beverage)", "Point_Type": 0, "Point_Ty_1": "Center", "Is_Extant": "Y", "Is_Sensiti": "N", "Source_Dat": "2002\/04\/01", "Edit_Date": "2008\/12\/12", "Map_Method": "DERV", "Map_Source": "ArcGIS feature to point tool was used.", "Point_Note": "Points were create by RIMD.", "Admin_Type": "Federal", "Federal_En": 58513, "Building_F": 83032, "FMSS_ID": "44222", "LCS_ID": "", "ASMIS_ID": "", "Park_ID": "", "DESCRIPTIO": "Associates Building (Food & Beverage)", "STREET": "1551 Trap Road", "CITY": "Vienna", "COUNTY": "FAIRFAX", "STATE": "VA", "ZIPCODE": "22182", "SZIPCODE": "1643", "Building_I": "{BB6E0FE0-CFE8-4631-B3AF-12B3AC2B067F}", "Geometry_I": "{110BAF13-3683-4CDA-867F-12F0A8B15A09}" }, "geometry": { "type": "Point", "coordinates": [ 303757.175311, 4312385.259202 ] } }
,
{ "type": "Feature", "id": 6, "properties": { "OBJECTID": 201, "Group_Code": "WOTR", "Unit_Code": "WOTR", "Label": "Meadow Pavillion", "Common_Nam": "Meadow Pavillion", "Point_Type": 0, "Point_Ty_1": "Center", "Is_Extant": "Y", "Is_Sensiti": "N", "Source_Dat": "2002\/04\/01", "Edit_Date": "2008\/12\/12", "Map_Method": "DERV", "Map_Source": "ArcGIS feature to point tool was used.", "Point_Note": "Points were create by RIMD.", "Admin_Type": "Federal", "Federal_En": 58513, "Building_F": 83032, "FMSS_ID": "44228", "LCS_ID": "", "ASMIS_ID": "", "Park_ID": "", "DESCRIPTIO": "Meadow Pavillion", "STREET": "1551 Trap Road", "CITY": "Vienna", "COUNTY": "FAIRFAX", "STATE": "VA", "ZIPCODE": "22182", "SZIPCODE": "1643", "Building_I": "{E08E9920-65E5-441A-9997-B181FED44F54}", "Geometry_I": "{4C865A4F-9F9D-49AF-B017-282F11404245}" }, "geometry": { "type": "Point", "coordinates": [ 303816.506676, 4312382.021157 ] } }
,
{ "type": "Feature", "id": 7, "properties": { "OBJECTID": 208, "Group_Code": "WOTR", "Unit_Code": "WOTR", "Label": "Interpration Offices Trailer", "Common_Nam": "Interpration Offices Trailer", "Point_Type": 0, "Point_Ty_1": "Center", "Is_Extant": "Y", "Is_Sensiti": "N", "Source_Dat": "2002\/04\/01", "Edit_Date": "2008\/12\/12", "Map_Method": "DERV", "Map_Source": "ArcGIS feature to point tool was used.", "Point_Note": "Points were create by RIMD.", "Admin_Type": "Federal", "Federal_En": 58513, "Building_F": 83032, "FMSS_ID": "102803", "LCS_ID": "", "ASMIS_ID": "", "Park_ID": "", "DESCRIPTIO": "Interpretation Offices Trailer", "STREET": "1551 Trap Road", "CITY": "Vienna", "COUNTY": "FAIRFAX", "STATE": "VA", "ZIPCODE": "22182", "SZIPCODE": "1643", "Building_I": "{3CF7564E-112B-4308-A0BC-D6E806F949A0}", "Geometry_I": "{ACE37CBE-E02C-414B-8FF4-B0A5E171BA07}" }, "geometry": { "type": "Point", "coordinates": [ 303766.985313, 4312393.435096 ] } }
,
{ "type": "Feature", "id": 8, "properties": { "OBJECTID": 209, "Group_Code": "WOTR", "Unit_Code": "WOTR", "Label": "Ovations Restaurant", "Common_Nam": "Ovations Restaurant", "Point_Type": 0, "Point_Ty_1": "Center", "Is_Extant": "Y", "Is_Sensiti": "N", "Source_Dat": "2002\/04\/01", "Edit_Date": "2008\/12\/12", "Map_Method": "DERV", "Map_Source": "ArcGIS feature to point tool was used.", "Point_Note": "Points were create by RIMD.", "Admin_Type": "Federal", "Federal_En": 58513, "Building_F": 83032, "FMSS_ID": "44220", "LCS_ID": "", "ASMIS_ID": "", "Park_ID": "", "DESCRIPTIO": "Ovations Restaurant", "STREET": "1551 Trap Road", "CITY": "Vienna", "COUNTY": "FAIRFAX", "STATE": "VA", "ZIPCODE": "22182", "SZIPCODE": "1643", "Building_I": "{C3FD2F35-672E-48BE-832B-0F4C7BF83AA9}", "Geometry_I": "{80D4A62F-276D-4E5C-87DA-6BD23464C2FA}" }, "geometry": { "type": "Point", "coordinates": [ 303685.142389, 4312344.916486 ] } }
,
{ "type": "Feature", "id": 9, "properties": { "OBJECTID": 210, "Group_Code": "WOTR", "Unit_Code": "WOTR", "Label": "Kiosk", "Common_Nam": "Kiosk", "Point_Type": 0, "Point_Ty_1": "Center", "Is_Extant": "Y", "Is_Sensiti": "N", "Source_Dat": "2002\/04\/01", "Edit_Date": "2008\/12\/12", "Map_Method": "DERV", "Map_Source": "ArcGIS feature to point tool was used.", "Point_Note": "Points were create by RIMD.", "Admin_Type": "Federal", "Federal_En": 58513, "Building_F": 82048, "FMSS_ID": "44219", "LCS_ID": "", "ASMIS_ID": "", "Park_ID": "", "DESCRIPTIO": "Circle Kiosk", "STREET": "1551 Trap Road", "CITY": "Vienna", "COUNTY": "FAIRFAX", "STATE": "VA", "ZIPCODE": "22182", "SZIPCODE": "1643", "Building_I": "{3B5740FA-09A9-40A2-9D04-3CC84A9B6FCD}", "Geometry_I": "{7FB064E8-D5F4-4CE4-8DDC-3FD008977391}" }, "geometry": { "type": "Point", "coordinates": [ 303620.968755, 4312258.000154 ] } }
,
{ "type": "Feature", "id": 10, "properties": { "OBJECTID": 218, "Group_Code": "WOTR", "Unit_Code": "WOTR", "Label": "Filene Center", "Common_Nam": "Filene Center", "Point_Type": 0, "Point_Ty_1": "Center", "Is_Extant": "Y", "Is_Sensiti": "N", "Source_Dat": "2002\/04\/01", "Edit_Date": "2008\/12\/12", "Map_Method": "DERV", "Map_Source": "ArcGIS feature to point tool was used.", "Point_Note": "Points were create by RIMD.", "Admin_Type": "Federal", "Federal_En": 58513, "Building_F": 82038, "FMSS_ID": "44120", "LCS_ID": "", "ASMIS_ID": "", "Park_ID": "", "DESCRIPTIO": "Filene Center", "STREET": "1551 Trap Road", "CITY": "Vienna", "COUNTY": "FAIRFAX", "STATE": "VA", "ZIPCODE": "22182", "SZIPCODE": "1643", "Building_I": "{D8CFCE78-06F5-4DF0-929C-68778F77F3C9}", "Geometry_I": "{5811D726-B7D4-411C-814C-9FA1CE6DD4D4}" }, "geometry": { "type": "Point", "coordinates": [ 303718.278939, 4312152.774988 ] } }
,
{ "type": "Feature", "id": 11, "properties": { "OBJECTID": 226, "Group_Code": "WOTR", "Unit_Code": "WOTR", "Label": "Theater in the Woods", "Common_Nam": "Theater in the Woods", "Point_Type": 0, "Point_Ty_1": "Center", "Is_Extant": "Y", "Is_Sensiti": "N", "Source_Dat": "2002\/04\/01", "Edit_Date": "2008\/12\/12", "Map_Method": "DERV", "Map_Source": "ArcGIS feature to point tool was used.", "Point_Note": "Points were create by RIMD.", "Admin_Type": "Federal", "Federal_En": 58513, "Building_F": 82038, "FMSS_ID": "44227", "LCS_ID": "", "ASMIS_ID": "", "Park_ID": "", "DESCRIPTIO": "Theater In The Woods", "STREET": "1551 Trap Road", "CITY": "Vienna", "COUNTY": "FAIRFAX", "STATE": "VA", "ZIPCODE": "22182", "SZIPCODE": "1643", "Building_I": "{7CA84B1B-EC59-4DA4-AC5B-5C7A0C24DD2F}", "Geometry_I": "{6B382B8A-6CCE-4E35-9348-78DB48337BEA}" }, "geometry": { "type": "Point", "coordinates": [ 303943.471176, 4312454.676471 ] } }
,
{ "type": "Feature", "id": 12, "properties": { "OBJECTID": 227, "Group_Code": "WOTR", "Unit_Code": "WOTR", "Label": "Food Services Stand A", "Common_Nam": "Food Services Stand A", "Point_Type": 0, "Point_Ty_1": "Center", "Is_Extant": "Y", "Is_Sensiti": "N", "Source_Dat": "2002\/04\/01", "Edit_Date": "2008\/12\/12", "Map_Method": "DERV", "Map_Source": "ArcGIS feature to point tool was used.", "Point_Note": "Points were create by RIMD.", "Admin_Type": "Federal", "Federal_En": 58513, "Building_F": 83032, "FMSS_ID": "44127", "LCS_ID": "", "ASMIS_ID": "", "Park_ID": "", "DESCRIPTIO": "Food Services Stand A", "STREET": "1551 Trap Road", "CITY": "Vienna", "COUNTY": "FAIRFAX", "STATE": "VA", "ZIPCODE": "22182", "SZIPCODE": "1643", "Building_I": "{2D79B23F-4306-4159-977C-664759F62737}", "Geometry_I": "{D359A5E5-C5DB-4D08-87D4-3E7C077FC169}" }, "geometry": { "type": "Point", "coordinates": [ 303711.562545, 4312246.380831 ] } }
,
{ "type": "Feature", "id": 13, "properties": { "OBJECTID": 228, "Group_Code": "WOTR", "Unit_Code": "WOTR", "Label": "Administration Building", "Common_Nam": "Administration Building", "Point_Type": 0, "Point_Ty_1": "Center", "Is_Extant": "Y", "Is_Sensiti": "N", "Source_Dat": "2002\/04\/01", "Edit_Date": "2008\/12\/12", "Map_Method": "DERV", "Map_Source": "ArcGIS feature to point tool was used.", "Point_Note": "Points were create by RIMD.", "Admin_Type": "Federal", "Federal_En": 58513, "Building_F": 83032, "FMSS_ID": "44215", "LCS_ID": "", "ASMIS_ID": "", "Park_ID": "", "DESCRIPTIO": "Administration Building", "STREET": "1551 Trap Road", "CITY": "Vienna", "COUNTY": "FAIRFAX", "STATE": "VA", "ZIPCODE": "22182", "SZIPCODE": "1643", "Building_I": "{669E16D6-5881-4802-BD38-4C0327AA2FAF}", "Geometry_I": "{13153873-C006-4F33-837D-E3FD0A9FF238}" }, "geometry": { "type": "Point", "coordinates": [ 303678.984627, 4312260.086555 ] } }
,
{ "type": "Feature", "id": 14, "properties": { "OBJECTID": 232, "Group_Code": "WOTR", "Unit_Code": "WOTR", "Label": "Maintenance Open Storage Area", "Common_Nam": "Maintenance Open Storage Area", "Point_Type": 0, "Point_Ty_1": "Center", "Is_Extant": "Y", "Is_Sensiti": "N", "Source_Dat": "2002\/04\/01", "Edit_Date": "2008\/12\/12", "Map_Method": "DERV", "Map_Source": "ArcGIS feature to point tool was used.", "Point_Note": "Points were create by RIMD.", "Admin_Type": "Federal", "Federal_En": 58513, "Building_F": 71026, "FMSS_ID": "44225", "LCS_ID": "", "ASMIS_ID": "", "Park_ID": "", "DESCRIPTIO": "Maintenance Open Storage Building", "STREET": "1551 Trap Road", "CITY": "Vienna", "COUNTY": "FAIRFAX", "STATE": "VA", "ZIPCODE": "22182", "SZIPCODE": "1643", "Building_I": "{D53CB959-DB2A-4F54-BA8C-C56EDF535724}", "Geometry_I": "{994916E3-6B8D-495F-BA38-FE7F015EAF60}" }, "geometry": { "type": "Point", "coordinates": [ 303224.040960, 4312678.106626 ] } }
,
{ "type": "Feature", "id": 15, "properties": { "OBJECTID": 233, "Group_Code": "WOTR", "Unit_Code": "WOTR", "Label": "Encore Circle Lounge", "Common_Nam": "Encore Circle Lounge", "Point_Type": 0, "Point_Ty_1": "Center", "Is_Extant": "Y", "Is_Sensiti": "N", "Source_Dat": "2002\/04\/01", "Edit_Date": "2008\/12\/12", "Map_Method": "DERV", "Map_Source": "ArcGIS feature to point tool was used.", "Point_Note": "Points were create by RIMD.", "Admin_Type": "Federal", "Federal_En": 58513, "Building_F": 83032, "FMSS_ID": "44221", "LCS_ID": "", "ASMIS_ID": "", "Park_ID": "", "DESCRIPTIO": "Encore Circle Lounge", "STREET": "1551 Trap Road", "CITY": "Vienna", "COUNTY": "FAIRFAX", "STATE": "VA", "ZIPCODE": "22182", "SZIPCODE": "1643", "Building_I": "{8870C90B-959A-48D0-B446-44D91489806D}", "Geometry_I": "{BA627A68-94E7-4CB6-892B-3176C45628B0}" }, "geometry": { "type": "Point", "coordinates": [ 303654.878736, 4312300.925172 ] } }
,
{ "type": "Feature", "id": 16, "properties": { "OBJECTID": 240, "Group_Code": "WOTR", "Unit_Code": "WOTR", "Label": "Maintenance Office building", "Common_Nam": "Maintenance Office building", "Point_Type": 0, "Point_Ty_1": "Center", "Is_Extant": "Y", "Is_Sensiti": "N", "Source_Dat": "2002\/04\/01", "Edit_Date": "2008\/12\/12", "Map_Method": "DERV", "Map_Source": "ArcGIS feature to point tool was used.", "Point_Note": "Points were create by RIMD.", "Admin_Type": "Federal", "Federal_En": 58513, "Building_F": 71026, "FMSS_ID": "44223", "LCS_ID": "", "ASMIS_ID": "", "Park_ID": "", "DESCRIPTIO": "Maintenance Office Building", "STREET": "1551 Trap Road", "CITY": "Vienna", "COUNTY": "FAIRFAX", "STATE": "VA", "ZIPCODE": "22182", "SZIPCODE": "1643", "Building_I": "{AC40A67E-1FE9-4D52-9E5B-B870E56B4EAD}", "Geometry_I": "{D3F8AB29-AF0A-41C9-A6C4-C369C0072115}" }, "geometry": { "type": "Point", "coordinates": [ 303256.238625, 4312649.179863 ] } }
,
{ "type": "Feature", "id": 17, "properties": { "OBJECTID": 241, "Group_Code": "WOTR", "Unit_Code": "WOTR", "Label": "Maintenance Shop Building", "Common_Nam": "Maintenance Shop Building", "Point_Type": 0, "Point_Ty_1": "Center", "Is_Extant": "Y", "Is_Sensiti": "N", "Source_Dat": "2002\/04\/01", "Edit_Date": "2008\/12\/12", "Map_Method": "DERV", "Map_Source": "ArcGIS feature to point tool was used.", "Point_Note": "Points were create by RIMD.", "Admin_Type": "Federal", "Federal_En": 58513, "Building_F": 71026, "FMSS_ID": "44224", "LCS_ID": "", "ASMIS_ID": "", "Park_ID": "", "DESCRIPTIO": "Maintenance Shop Building", "STREET": "1551 Trap Road", "CITY": "Vienna", "COUNTY": "FAIRFAX", "STATE": "VA", "ZIPCODE": "22182", "SZIPCODE": "1643", "Building_I": "{CB0E6DFA-CA85-4EB0-80B1-F528F90B3AAA}", "Geometry_I": "{C306A6FB-05D2-4FE4-AC9C-BA3A001D25D0}" }, "geometry": { "type": "Point", "coordinates": [ 303209.202817, 4312630.205087 ] } }
,
{ "type": "Feature", "id": 18, "properties": { "OBJECTID": 243, "Group_Code": "WOTR", "Unit_Code": "WOTR", "Label": "Meadow Restroom", "Common_Nam": "Meadow Restroom", "Point_Type": 0, "Point_Ty_1": "Center", "Is_Extant": "Y", "Is_Sensiti": "N", "Source_Dat": "2002\/04\/01", "Edit_Date": "2008\/12\/12", "Map_Method": "DERV", "Map_Source": "ArcGIS feature to point tool was used.", "Point_Note": "Points were create by RIMD.", "Admin_Type": "Federal", "Federal_En": 58513, "Building_F": 83032, "FMSS_ID": "44226", "LCS_ID": "", "ASMIS_ID": "", "Park_ID": "", "DESCRIPTIO": "Meadow Restrooms", "STREET": "1551 Trap Road", "CITY": "Vienna", "COUNTY": "FAIRFAX", "STATE": "VA", "ZIPCODE": "22182", "SZIPCODE": "1643", "Building_I": "{E6BCE77D-F0BE-4464-957F-039150472CB5}", "Geometry_I": "{D5FFCFCB-E697-4686-B828-FBA56010FC19}" }, "geometry": { "type": "Point", "coordinates": [ 303849.825304, 4312203.553361 ] } }
,
{ "type": "Feature", "id": 19, "properties": { "OBJECTID": 247, "Group_Code": "WOTR", "Unit_Code": "WOTR", "Label": "Barn", "Common_Nam": "Barn", "Point_Type": 0, "Point_Ty_1": "Center", "Is_Extant": "Y", "Is_Sensiti": "N", "Source_Dat": "2002\/04\/01", "Edit_Date": "2008\/12\/12", "Map_Method": "DERV", "Map_Source": "ArcGIS feature to point tool was used.", "Point_Note": "Points were create by RIMD.", "Admin_Type": "Federal", "Federal_En": 58513, "Building_F": 83032, "FMSS_ID": "44218", "LCS_ID": "", "ASMIS_ID": "", "Park_ID": "", "DESCRIPTIO": "Barn", "STREET": "1551 Trap Road", "CITY": "Vienna", "COUNTY": "FAIRFAX", "STATE": "VA", "ZIPCODE": "22182", "SZIPCODE": "1643", "Building_I": "{69755618-0E46-43B0-BF2C-83965EB8488F}", "Geometry_I": "{EDDD9992-B3EE-4159-A3E9-080929E5E77C}" }, "geometry": { "type": "Point", "coordinates": [ 303669.699352, 4312333.046157 ] } }
,
{ "type": "Feature", "id": 20, "properties": { "OBJECTID": 273, "Group_Code": "WOTR", "Unit_Code": "WOTR", "Label": "Main Gate", "Common_Nam": "Main Gate", "Point_Type": 0, "Point_Ty_1": "Center", "Is_Extant": "Y", "Is_Sensiti": "N", "Source_Dat": "2002\/04\/01", "Edit_Date": "2008\/12\/12", "Map_Method": "DERV", "Map_Source": "ArcGIS feature to point tool was used.", "Point_Note": "Points were create by RIMD.", "Admin_Type": "Federal", "Federal_En": 58513, "Building_F": 83032, "FMSS_ID": "44121", "LCS_ID": "", "ASMIS_ID": "", "Park_ID": "", "DESCRIPTIO": "", "STREET": "", "CITY": "", "COUNTY": "", "STATE": "", "ZIPCODE": "", "SZIPCODE": "", "Building_I": "{E36C6072-216C-4DAB-B876-D92FD7DE5CCE}", "Geometry_I": "{127F663F-3645-4BB2-B9B0-12DFCBD0A4D2}" }, "geometry": { "type": "Point", "coordinates": [ 303627.245308, 4312213.655516 ] } }

]
}
