{"type":"Topology","objects":{"collection":{"type":"GeometryCollection","geometries":[{"type":"Point","properties":{"name":"AdvanTech Incubator","Name":"AdvanTech Incubator","OBJECTID":1,"Address":"501 E. Franklin St","Web":"www.advantechva.org","Address2":null,"City":"Richmond","State":"VA","Zip":23219,"Ver":1,"Label":1},"coordinates":[8214,3969]},{"type":"Point","properties":{"name":"BizWorks Enterprise Center","Name":"BizWorks Enterprise Center","OBJECTID":2,"Address":"2545 Bellwood Road","Web":"www.bizworkscenter.org","Address2":null,"City":"Richmond","State":"VA","Zip":23237,"Ver":1,"Label":2},"coordinates":[8224,3414]},{"type":"Point","properties":{"name":"Charlottesville Technology Incubator","Name":"Charlottesville Technology Incubator","OBJECTID":3,"Address":"501 East Main Street","Web":"www.cvilletechincubator.org","Address2":null,"City":"Charlottesville","State":"VA","Zip":22092,"Ver":1,"Label":3},"coordinates":[6622,6040]},{"type":"Point","properties":{"name":"Community Business Partnership","Name":"Community Business Partnership","OBJECTID":4,"Address":"7001 Loisdale Road","Web":"www.cbponline.org","Address2":"Suite C","City":"Springfield","State":"VA","Zip":22150,"Ver":1,"Label":4},"coordinates":[8607,9157]},{"type":"Point","properties":{"name":"Dan River Business Development Center","Name":"Dan River Business Development Center","OBJECTID":5,"Address":"300 Ringgold Industrial Parkway","Web":"www.drbdc.com","Address2":null,"City":"Danville","State":"VA","Zip":24540,"Ver":1,"Label":5},"coordinates":[5295,0]},{"type":"Point","properties":{"name":"Empowerment 2010, Inc. Small Business Incubator and Resource Center","Name":"Empowerment 2010, Inc. Small Business Incubator and Resource Center","OBJECTID":6,"Address":"1130 Tabb Street","Web":"www.empowerment2010.org","Address2":null,"City":"Norfolk","State":"VA","Zip":23504,"Ver":1,"Label":6},"coordinates":[9999,1051]},{"type":"Point","properties":{"name":"Fairfax Innovation Center","Name":"Fairfax Innovation Center","OBJECTID":7,"Address":"4031 University Drive","Web":"www.fairfaxinnovationcenter.org","Address2":"Suite 200","City":"Fairfax","State":"VA","Zip":22030,"Ver":1,"Label":7},"coordinates":[8420,9493]},{"type":"Point","properties":{"name":"Franklin Business Incubator","Name":"Franklin Business Incubator","OBJECTID":8,"Address":"601 N. Mechanic Street","Web":"www.franklinsouthamptonva.com","Address2":"Suite 300","City":"Franklin","State":"VA","Zip":23851,"Ver":1,"Label":8},"coordinates":[9003,324]},{"type":"Point","properties":{"name":"Hampton Roads Technology Incubator System","Name":"Hampton Roads Technology Incubator System","OBJECTID":9,"Address":"144 Research Drive","Web":"www.hrtis.org  ","Address2":null,"City":"Hampton","State":"VA","Zip":23666,"Ver":1,"Label":9},"coordinates":[9816,2018]},{"type":"Point","properties":{"name":"Hampton University Business Incubator","Name":"Hampton University Business Incubator","OBJECTID":10,"Address":"6 W. County Street","Web":"www.hamptonu.edu/HUBAC/bus_inc/","Address2":null,"City":"Hampton","State":"VA","Zip":23663,"Ver":1,"Label":10},"coordinates":[9927,1759]},{"type":"Point","properties":{"name":"INC.Spire","Name":"INC.Spire","OBJECTID":11,"Address":"1763 Fountain Drive","Web":"www.restonchamber.com","Address2":null,"City":"Reston","State":"VA","Zip":20190,"Ver":1,"Label":11},"coordinates":[8342,9999]},{"type":"Point","properties":{"name":"International Accelerator","Name":"International Accelerator","OBJECTID":12,"Address":"4031 University Drive","Web":"www.masonenterprisecenter.org/intl","Address2":"Suite 200","City":"Fairfax","State":"VA","Zip":22030,"Ver":1,"Label":13},"coordinates":[8420,9493]},{"type":"Point","properties":{"name":"James City County Technology Incubator","Name":"James City County Technology Incubator","OBJECTID":13,"Address":"5300 Palmer Lane","Web":"www.incubatoramerica.com","Address2":"Suite 2A","City":"Williamsburg","State":"VA","Zip":23188,"Ver":1,"Label":14},"coordinates":[9297,2887]},{"type":"Point","properties":{"name":"Korea Business Development Center","Name":"Korea Business Development Center","OBJECTID":14,"Address":"1952 Gallows Road","Web":"www.sbc-kbdc.com","Address2":null,"City":"Vienna","State":"VA?","Zip":22182,"Ver":1,"Label":15},"coordinates":[8538,9778]},{"type":"Point","properties":{"name":"Lynchburg Business Development Center","Name":"Lynchburg Business Development Center","OBJECTID":15,"Address":"147 Mill Ridge Road","Web":"www.lbdc.com","Address2":null,"City":"Lynchburg","State":"VA","Zip":24502,"Ver":1,"Label":16},"coordinates":[5481,3260]},{"type":"Point","properties":{"name":"Mason Enterprise Center @ Prince William, GMU","Name":"Mason Enterprise Center @ Prince William, GMU","OBJECTID":16,"Address":"10900 University Blvd","Web":"www.masonenterprisecenter.org","Address2":"MSN 1J2, Bull Run Hall 147","City":"Manassas","State":"VA","Zip":20110,"Ver":1,"Label":17},"coordinates":[8087,9112]},{"type":"Point","properties":{"name":"MBL Small Business Incubator","Name":"MBL Small Business Incubator","OBJECTID":17,"Address":"115 East Marshall Street","Web":"www.thembl.org","Address2":"P.O. Box 26751","City":"Richmond","State":"VA","Zip":23261,"Ver":1,"Label":18},"coordinates":[8213,3990]},{"type":"Point","properties":{"name":"New River Valley Competitiveness Center","Name":"New River Valley Competitiveness Center","OBJECTID":18,"Address":"6508 Valley Center Drive","Web":"www.nrvdc.org/nrvcc.html","Address2":null,"City":"Radford","State":"VA","Zip":24141,"Ver":1,"Label":20},"coordinates":[3456,2301]},{"type":"Point","properties":{"name":"NewBiz Virginia","Name":"NewBiz Virginia","OBJECTID":19,"Address":"50 Lodge Ln.","Web":"www.newbizva.org","Address2":"Ste. 114","City":"Verona","State":"VA","Zip":24482,"Ver":1,"Label":21},"coordinates":[5822,6739]},{"type":"Point","properties":{"name":"Nottoway County Small Business Incubator @ Pickett Park","Name":"Nottoway County Small Business Incubator @ Pickett Park","OBJECTID":20,"Address":"1279 W. 10th St., Pickett Park","Web":"www.ncvc.com","Address2":null,"City":"Blackstone","State":"VA","Zip":0,"Ver":1,"Label":22},"coordinates":[7430,1949]},{"type":"Point","properties":{"name":"Pioneer Center for Business Opportunity","Name":"Pioneer Center for Business Opportunity","OBJECTID":21,"Address":"Post Office Box 408","Web":"www.pcbo.org Norton Facility","Address2":null,"City":"Duffield","State":"VA","Zip":0,"Ver":1,"Label":23},"coordinates":[0,460]},{"type":"Point","properties":{"name":"Richlands Business Incubator","Name":"Richlands Business Incubator","OBJECTID":22,"Address":"1928 Front St.","Web":"www.rbi.tazewellcounty.org/","Address2":null,"City":"Richlands","State":"VA","Zip":24641,"Ver":1,"Label":25},"coordinates":[1530,2076]},{"type":"Point","properties":{"name":"Spinner Technologies, Inc.","Name":"Spinner Technologies, Inc.","OBJECTID":23,"Address":"250 West Main Street","Web":"www.spinnertech.com","Address2":"Suite 210","City":"Charlottesville","State":"VA","Zip":22902,"Ver":1,"Label":26},"coordinates":[6614,6045]},{"type":"Point","properties":{"name":"The Highland Center","Name":"The Highland Center","OBJECTID":24,"Address":"P.O. Box 556","Web":"www.thehighlandcenter.org","Address2":null,"City":"Monterey","State":"VA","Zip":0,"Ver":1,"Label":27},"coordinates":[4923,7651]},{"type":"Point","properties":{"name":"The Jacksonville Center","Name":"The Jacksonville Center","OBJECTID":25,"Address":"220 Parkway Ln., South","Web":"www.jacksonvillecenter.org","Address2":null,"City":"Floyd","State":"VA","Zip":24091,"Ver":1,"Label":28},"coordinates":[3804,1280]},{"type":"Point","properties":{"name":"The Southwest Regional Enterprise Center at Crossroads Institute","Name":"The Southwest Regional Enterprise Center at Crossroads Institute","OBJECTID":26,"Address":"1117 E. Stuart Drive","Web":"www.crossroadsva.org","Address2":null,"City":"Galax","State":"VA","Zip":24333,"Ver":1,"Label":29},"coordinates":[2865,226]},{"type":"Point","properties":{"name":"Virginia Biosciences Development Center","Name":"Virginia Biosciences Development Center","OBJECTID":27,"Address":"800 East Leigh St.","Web":"www.vabiotech.com/bioincubator","Address2":null,"City":"Richmond","State":"VA","Zip":23219,"Ver":1,"Label":30},"coordinates":[8226,3983]},{"type":"Point","properties":{"name":"Virginia Highlands Small Business Incubator","Name":"Virginia Highlands Small Business Incubator","OBJECTID":28,"Address":"851 French Moore Jr. Blvd.","Web":"www.vhsbi.com","Address2":null,"City":"Abingdon","State":"VA","Zip":0,"Ver":1,"Label":31},"coordinates":[1225,389]},{"type":"Point","properties":{"name":"Virginia Technology Incubator","Name":"Virginia Technology Incubator","OBJECTID":29,"Address":"1400 Technology Drive","Web":"www.vti-ltd.com","Address2":null,"City":"Harrisonburg","State":"VA","Zip":22802,"Ver":1,"Label":32},"coordinates":[6048,7884]},{"type":"Point","properties":{"name":"VT KnowledgeWorks @ Virginia Tech Corporate Research Center","Name":"VT KnowledgeWorks @ Virginia Tech Corporate Research Center","OBJECTID":30,"Address":"2201 Kraft Dr.","Web":"www.vtknowledgeworks.com","Address2":"Suite 1000","City":"Blacksburg","State":"VA","Zip":24060,"Ver":1,"Label":33},"coordinates":[3665,2526]},{"type":"Point","properties":{"name":"West Piedmont Business Development Center","Name":"West Piedmont Business Development Center","OBJECTID":31,"Address":"22 East Church Street","Web":"www.wpbdc.org","Address2":null,"City":"Martinsville","State":"VA","Zip":24112,"Ver":1,"Label":34},"coordinates":[4486,366]},{"type":"Point","properties":{"name":"West Point Downtown Business Center","Name":"West Point Downtown Business Center","OBJECTID":32,"Address":"621 Main Street","Web":null,"Address2":"P.O. Box 152","City":"West Point","State":"VA","Zip":23181,"Ver":1,"Label":35},"coordinates":[9199,3927]},{"type":"Point","properties":{"name":"Incubator America","Name":"Incubator America","OBJECTID":33,"Address":"2111 Wilson Blvd","Web":null,"Address2":null,"City":"Arlington","State":"VA","Zip":22201,"Ver":1,"Label":12},"coordinates":[8756,9693]},{"type":"Point","properties":{"name":"New Century Venture Center","Name":"New Century Venture Center","OBJECTID":34,"Address":"1390B Southside Drive","Web":null,"Address2":null,"City":"Salem","State":"VA","Zip":24153,"Ver":1,"Label":19},"coordinates":[4167,2878]},{"type":"Point","properties":{"name":"Pioneer Center for Business Opportunity (Norton)","Name":"Pioneer Center for Business Opportunity (Norton)","OBJECTID":35,"Address":"798 Park Avenue Southwest","Web":"www.pcbo.org","Address2":null,"City":"Norton","State":"VA","Zip":24273,"Ver":1,"Label":24},"coordinates":[262,1396]}]}},"arcs":[],"transform":{"scale":[0.0006526288126967084,0.00023598686927900955],"translate":[-82.79994209880958,36.604421839835766]},"bbox":[-82.79994209880958,36.604421839835766,-76.2743066006552,38.96405454575658]}