{
"type": "FeatureCollection",
"features": [
{ "type": "Feature", "id": 0, "properties": { "ID_": 1, "TAX_NUMBER": "1113414", "PRECINCT": "Highland #1", "PLACE_NAME": "Scottish Rite Bldg", "ADDRESS": "622 Campbell Ave SW", "DISTRICT": "11" }, "geometry": { "type": "Point", "coordinates": [ 11060032.234074, 3625270.529038 ] } }
,
{ "type": "Feature", "id": 1, "properties": { "ID_": 2, "TAX_NUMBER": "1022801", "PRECINCT": "Highland #2", "PLACE_NAME": "Highland Park ES", "ADDRESS": "1212 5th St SW", "DISTRICT": "11" }, "geometry": { "type": "Point", "coordinates": [ 11060823.122912, 3622569.721120 ] } }
,
{ "type": "Feature", "id": 2, "properties": { "ID_": 5, "TAX_NUMBER": "4310101", "PRECINCT": "Jefferson #1", "PLACE_NAME": "Fallon Park ES", "ADDRESS": "502 19th St SE", "DISTRICT": "11" }, "geometry": { "type": "Point", "coordinates": [ 11070999.999868, 3626559.999885 ] } }
,
{ "type": "Feature", "id": 3, "properties": { "ID_": 8, "TAX_NUMBER": "1052210", "PRECINCT": "Jefferson #2", "PLACE_NAME": "Crystal Spring Baptist Church", "ADDRESS": "2411 Rosalind Ave SW", "DISTRICT": "11" }, "geometry": { "type": "Point", "coordinates": [ 11060939.546891, 3616684.733874 ] } }
,
{ "type": "Feature", "id": 4, "properties": { "ID_": 9, "TAX_NUMBER": "7090410", "PRECINCT": "Tinker", "PLACE_NAME": "East Gate Nazarene", "ADDRESS": "2002 East Gate Ave NE", "DISTRICT": "11" }, "geometry": { "type": "Point", "coordinates": [ 11071477.474963, 3633371.854699 ] } }
,
{ "type": "Feature", "id": 5, "properties": { "ID_": 10, "TAX_NUMBER": "3160105", "PRECINCT": "Williamson Rd #1", "PLACE_NAME": "Noel C Taylor Learning Academy at Oakland", "ADDRESS": "3229 Williamson R NE", "DISTRICT": "11" }, "geometry": { "type": "Point", "coordinates": [ 11063531.894069, 3636499.958023 ] } }
,
{ "type": "Feature", "id": 6, "properties": { "ID_": 11, "TAX_NUMBER": "2100601", "PRECINCT": "Williamson Rd #2", "PLACE_NAME": "Preston Park Recreation Center", "ADDRESS": "3137 Preston Ave NW", "DISTRICT": "11" }, "geometry": { "type": "Point", "coordinates": [ 11062107.960565, 3640270.131585 ] } }
,
{ "type": "Feature", "id": 7, "properties": { "ID_": 15, "TAX_NUMBER": "2100501", "PRECINCT": "Williamson Rd #6", "PLACE_NAME": "Preston Park ES", "ADDRESS": "3142 Preston Ave NW", "DISTRICT": "11" }, "geometry": { "type": "Point", "coordinates": [ 11061917.513768, 3640658.203972 ] } }
,
{ "type": "Feature", "id": 8, "properties": { "ID_": 12, "TAX_NUMBER": "3080433", "PRECINCT": "Williamson Rd #3", "PLACE_NAME": "Public Works Service Center", "ADDRESS": "1802 Courtland Rd NE", "DISTRICT": "11" }, "geometry": { "type": "Point", "coordinates": [ 11064748.576019, 3631413.735584 ] } }
,
{ "type": "Feature", "id": 9, "properties": { "ID_": 13, "TAX_NUMBER": "2250102", "PRECINCT": "Williamson Rd #4", "PLACE_NAME": "Round Hill ES", "ADDRESS": "2020 Oakland Blvd NW", "DISTRICT": "11" }, "geometry": { "type": "Point", "coordinates": [ 11059529.600892, 3635239.035676 ] } }
,
{ "type": "Feature", "id": 10, "properties": { "ID_": 14, "TAX_NUMBER": "2370101", "PRECINCT": "Williamson Rd #5", "PLACE_NAME": "VFW Post #1264", "ADDRESS": "4930 Grandview Ave NW", "DISTRICT": "11" }, "geometry": { "type": "Point", "coordinates": [ 11057638.558087, 3641055.713347 ] } }
,
{ "type": "Feature", "id": 11, "properties": { "ID_": 16, "TAX_NUMBER": "2050703", "PRECINCT": "Lincoln Terrace", "PLACE_NAME": "Lincoln Terrace ES", "ADDRESS": "1802 Liberty Rd NW", "DISTRICT": "11" }, "geometry": { "type": "Point", "coordinates": [ 11062628.133737, 3631742.153890 ] } }
,
{ "type": "Feature", "id": 12, "properties": { "ID_": 17, "TAX_NUMBER": "3300102", "PRECINCT": "Monterey", "PLACE_NAME": "Monterey ES", "ADDRESS": "4501 Oliver Rd NE", "DISTRICT": "17" }, "geometry": { "type": "Point", "coordinates": [ 11065532.700435, 3642708.441997 ] } }
,
{ "type": "Feature", "id": 13, "properties": { "ID_": 18, "TAX_NUMBER": "6460102", "PRECINCT": "Peters Creek", "PLACE_NAME": "Ruffner Operations Center", "ADDRESS": "3601 Ferncliff Ave NW", "DISTRICT": "11" }, "geometry": { "type": "Point", "coordinates": [ 11051758.620371, 3639092.421342 ] } }
,
{ "type": "Feature", "id": 14, "properties": { "ID_": 19, "TAX_NUMBER": "2031515", "PRECINCT": "Melrose", "PLACE_NAME": "St Gerard Catholic Church", "ADDRESS": "809 Orange Ave NW", "DISTRICT": "11" }, "geometry": { "type": "Point", "coordinates": [ 11060746.098788, 3630076.306828 ] } }
,
{ "type": "Feature", "id": 15, "properties": { "ID_": 20, "TAX_NUMBER": "2340104", "PRECINCT": "Eureka Park", "PLACE_NAME": "Roanoke Academy of Math and Science", "ADDRESS": "1122 19th St NW", "DISTRICT": "11" }, "geometry": { "type": "Point", "coordinates": [ 11056388.344052, 3633673.086052 ] } }
,
{ "type": "Feature", "id": 16, "properties": { "ID_": 21, "TAX_NUMBER": "2420201", "PRECINCT": "Villa Heights", "PLACE_NAME": "Forest Park Academy", "ADDRESS": "2730 Melrose Ave NW", "DISTRICT": "11" }, "geometry": { "type": "Point", "coordinates": [ 11052384.184409, 3631630.528129 ] } }
,
{ "type": "Feature", "id": 17, "properties": { "ID_": 22, "TAX_NUMBER": "2640303", "PRECINCT": "Washington Heights", "PLACE_NAME": "Fairview ES", "ADDRESS": "648 Westwood Blvd NW", "DISTRICT": "11" }, "geometry": { "type": "Point", "coordinates": [ 11047714.999850, 3630984.019908 ] } }
,
{ "type": "Feature", "id": 18, "properties": { "ID_": 23, "TAX_NUMBER": "2670901", "PRECINCT": "Westside", "PLACE_NAME": "Westside ES", "ADDRESS": "1441 Westside Blvd NW", "DISTRICT": "11" }, "geometry": { "type": "Point", "coordinates": [ 11048015.999904, 3636443.250131 ] } }
,
{ "type": "Feature", "id": 19, "properties": { "ID_": 24, "TAX_NUMBER": "1330301", "PRECINCT": "Raleigh Court #1", "PLACE_NAME": "Virginia Heights ES", "ADDRESS": "1210 Amherst St SW", "DISTRICT": "11" }, "geometry": { "type": "Point", "coordinates": [ 11053281.870934, 3623830.565383 ] } }
,
{ "type": "Feature", "id": 20, "properties": { "ID_": 26, "TAX_NUMBER": "1530401", "PRECINCT": "Raleigh Court #2", "PLACE_NAME": "Woodrow Wilson MS", "ADDRESS": "1813 Carter Rd SW", "DISTRICT": "11" }, "geometry": { "type": "Point", "coordinates": [ 11050309.847350, 3622484.476212 ] } }
,
{ "type": "Feature", "id": 21, "properties": { "ID_": 27, "TAX_NUMBER": "1460101", "PRECINCT": "Raleigh Court #3", "PLACE_NAME": "Patrick Henry HS", "ADDRESS": "2102 Grandin Rd SW", "DISTRICT": "11" }, "geometry": { "type": "Point", "coordinates": [ 11051162.827600, 3620003.641606 ] } }
,
{ "type": "Feature", "id": 22, "properties": { "ID_": 28, "TAX_NUMBER": "1460101", "PRECINCT": "Raleigh Court #4", "PLACE_NAME": "Raleigh Court School", "ADDRESS": "2202 Grandin Rd SW", "DISTRICT": "11" }, "geometry": { "type": "Point", "coordinates": [ 11050409.911783, 3619411.000403 ] } }
,
{ "type": "Feature", "id": 23, "properties": { "ID_": 29, "TAX_NUMBER": "1240901", "PRECINCT": "Raleigh Court #5", "PLACE_NAME": "Wasena ES", "ADDRESS": "1125 Sherwood Ave SW", "DISTRICT": "11" }, "geometry": { "type": "Point", "coordinates": [ 11055675.155845, 3621021.688127 ] } }
,
{ "type": "Feature", "id": 24, "properties": { "ID_": 30, "TAX_NUMBER": "1230520", "PRECINCT": "Wasena", "PLACE_NAME": "Ghent Grace Brethren Church Gym", "ADDRESS": "1511 Maiden Ln SW", "DISTRICT": "11" }, "geometry": { "type": "Point", "coordinates": [ 11055651.202809, 3623329.063105 ] } }
,
{ "type": "Feature", "id": 25, "properties": { "ID_": 31, "TAX_NUMBER": "1380101", "PRECINCT": "Fishburn Park", "PLACE_NAME": "Fishburn Park ES", "ADDRESS": "3057 Colonial Ave SW", "DISTRICT": "11" }, "geometry": { "type": "Point", "coordinates": [ 11053855.801545, 3617650.405827 ] } }
,
{ "type": "Feature", "id": 26, "properties": { "ID_": 32, "TAX_NUMBER": "1640317", "PRECINCT": "Grandin Court", "PLACE_NAME": "Grandin Court ES", "ADDRESS": "2815 Spessard Rd SW", "DISTRICT": "17" }, "geometry": { "type": "Point", "coordinates": [ 11048830.999914, 3616537.499917 ] } }
,
{ "type": "Feature", "id": 27, "properties": { "ID_": 33, "TAX_NUMBER": "1051601", "PRECINCT": "South Roanoke #1", "PLACE_NAME": "Fire Station No. 8", "ADDRESS": "2318 Crystal Spring Ave SW", "DISTRICT": "11" }, "geometry": { "type": "Point", "coordinates": [ 11061542.083744, 3616590.031308 ] } }
,
{ "type": "Feature", "id": 28, "properties": { "ID_": 34, "TAX_NUMBER": "1061303", "PRECINCT": "South Roanoke #2", "PLACE_NAME": "Crystal Spring ES", "ADDRESS": "2620 Carolina Ave SW", "DISTRICT": "11" }, "geometry": { "type": "Point", "coordinates": [ 11060227.621806, 3615866.865431 ] } }
,
{ "type": "Feature", "id": 29, "properties": { "ID_": 35, "TAX_NUMBER": "5070410", "PRECINCT": "Lee-Hi", "PLACE_NAME": "Windsor Hills United Methodist Church", "ADDRESS": "3591 Windsor Rd SW", "DISTRICT": "17" }, "geometry": { "type": "Point", "coordinates": [ 11042708.482960, 3619088.973816 ] } }
,
{ "type": "Feature", "id": 30, "properties": { "ID_": 37, "TAX_NUMBER": "4400306", "PRECINCT": "Garden City", "PLACE_NAME": "Garden City ES", "ADDRESS": "3710 Garden City Blvd SE", "DISTRICT": "17" }, "geometry": { "type": "Point", "coordinates": [ 11066710.023868, 3609654.244326 ] } }
,
{ "type": "Feature", "id": 31, "properties": { "ID_": 38, "TAX_NUMBER": "1011401", "PRECINCT": "Courthouse", "PLACE_NAME": "Municipal Bldg - Rm 109 North", "ADDRESS": "215 Church Ave SW", "DISTRICT": "11" }, "geometry": { "type": "Point", "coordinates": [ 11062492.505072, 3625466.971559 ] } }
,
{ "type": "Feature", "id": 32, "properties": { "ID_": 7, "TAX_NUMBER": "4130502", "PRECINCT": "Jefferson - Riverdale", "PLACE_NAME": "Jackson Park Library", "ADDRESS": "1101 Morningside St SE", "DISTRICT": "17" }, "geometry": { "type": "Point", "coordinates": [ 11068156.548205, 3623391.142049 ] } }

]
}
