{"type":"Topology","objects":{"collection":{"type":"GeometryCollection","geometries":[{"type":"Point","properties":{"name":"Winchester Country Club","TYPE":"Private","MAIL_ADD":"P.O. Box 2076","CITY":"Winchester","ZIP":22602,"PHONE":"540-662-3140","COUNTY":"Frederick","HYPERLINK":"http://www.virginiagolf.com/winchester.html"},"coordinates":[6648,9999]},{"type":"Point","properties":{"name":"Carper's Valley Golf Course","TYPE":"Public","MAIL_ADD":"1400 Millwood Pike","CITY":"Winchester","ZIP":22602,"PHONE":"540-662-4319","COUNTY":"Frederick","HYPERLINK":"http://www.virginiagolf.com/carpersvalley.html"},"coordinates":[6652,9926]},{"type":"Point","properties":{"name":"Loudoun Golf and Country Club","TYPE":"Private","MAIL_ADD":"P.O. Box 189","CITY":"Purcellville","ZIP":20134,"PHONE":"540-338-7705","COUNTY":"Loudoun","HYPERLINK":"http://www.virginiagolf.com/loudon.html"},"coordinates":[7162,9858]},{"type":"Point","properties":{"name":"Stoneleigh Golf Course","TYPE":"Semi-Private","MAIL_ADD":"35271 Prestwick Street","CITY":"Round Hill","ZIP":20141,"PHONE":"540-589-1402","COUNTY":"Loudoun","HYPERLINK":"http://www.virginiagolf.com/stoneleigh.html"},"coordinates":[7093,9814]},{"type":"Point","properties":{"name":"River Creek Club","TYPE":"Private","MAIL_ADD":"43730 Olympic Boulevard","CITY":"Leesburg","ZIP":20176,"PHONE":"703-779-2022","COUNTY":"Loudoun","COMMENT":"Estimated Boundary","HYPERLINK":"http://www.rivercreekclub.com/"},"coordinates":[7451,9757]},{"type":"Point","properties":{"name":"Goose Creek Golf Course","TYPE":"Public","MAIL_ADD":"43001 Golf Club Road","CITY":"Leesburg","ZIP":22075,"PHONE":"703-729-2500","COUNTY":"Loudoun","HYPERLINK":"http://www.virginiagolf.com/goosecreek.html"},"coordinates":[7427,9663]},{"type":"Point","properties":{"name":"Lansdowne Golf Club","TYPE":"Resort","MAIL_ADD":"44050 Woodbridge Parkway","CITY":"Leesburg","ZIP":20176,"PHONE":"703-729-4071","COUNTY":"Loudoun","HYPERLINK":"http://www.virginiagolf.com/lansdowne.html"},"coordinates":[7472,9650]},{"type":"Point","properties":{"name":"Algonkian Park Golf Course","TYPE":"Public","MAIL_ADD":"47001 Fairway Drive","CITY":"Sterling","ZIP":20165,"PHONE":"703-450-4655","COUNTY":"Loudoun","HYPERLINK":"http://www.virginiagolf.com/algonkian.html"},"coordinates":[7598,9569]},{"type":"Point","properties":{"name":"River Bend Golf and Country Club","TYPE":"Private","MAIL_ADD":"9901 Beach Mill Road","CITY":"Great Falls","ZIP":22066,"PHONE":"703-759-2640","COUNTY":"Fairfax","HYPERLINK":"http://www.virginiagolf.com/riverbend.html"},"coordinates":[7706,9419]},{"type":"Point","properties":{"name":"Sterling Park Golf, Swim and Tennis Club","TYPE":"Public","MAIL_ADD":"333 South Sterling Boulevard","CITY":"Sterling","ZIP":20164,"PHONE":"703-430-1400","COUNTY":"Loudoun","HYPERLINK":"http://www.virginia.org/site/description.asp?AttrID=28407&MGrp=1&MCat=86&MItm=22&Rgn=10000&StrtLtr=S"},"coordinates":[7554,9359]},{"type":"Point","properties":{"name":"Brambleton Regional Park Golf Course","TYPE":"Public","MAIL_ADD":"42180 Ryan Road","CITY":"Ashburn","ZIP":20147,"PHONE":"703-327-3403","COUNTY":"Loudoun","HYPERLINK":"http://www.virginiagolf.com/brambleton.html"},"coordinates":[7395,9319]},{"type":"Point","properties":{"name":"Herndon Centennial Golf Course","TYPE":"Public","MAIL_ADD":"909 Ferndale Avenue","CITY":"Herndon","ZIP":20170,"PHONE":"703-471-5769","COUNTY":"Fairfax","HYPERLINK":"http://www.virginiagolf.com/herndoncentennial.html"},"coordinates":[7572,9263]},{"type":"Point","properties":{"name":"Reston National Golf Course","TYPE":"Semi-Private","MAIL_ADD":"11875 Sunrise Valley Drive","CITY":"Reston","ZIP":20191,"PHONE":"703-620-9333","COUNTY":"Fairfax","HYPERLINK":"http://www.virginiagolf.com/restonnational.html"},"coordinates":[7621,9133]},{"type":"Point","properties":{"name":"Westwood Country Club","TYPE":"Private","MAIL_ADD":"800 Maple Avenue","CITY":"Vienna","ZIP":22180,"PHONE":"703-938-2593","COUNTY":"Fairfax","HYPERLINK":"http://www.virginiagolf.com/westwood.html"},"coordinates":[7750,9025]},{"type":"Point","properties":{"name":"Washington Golf and Country Club","TYPE":"Private","MAIL_ADD":"3017 North Glebe Road","CITY":"Arlington","ZIP":22207,"PHONE":"703-522-7091","COUNTY":"Arlington","HYPERLINK":"http://www.virginiagolf.com/washington.html"},"coordinates":[7907,9006]},{"type":"Point","properties":{"name":"International Country Club","TYPE":"Private","MAIL_ADD":"13200 Lee Jackson Highway","CITY":"Fairfax","ZIP":22033,"PHONE":"703-449-3430","COUNTY":"Fairfax","HYPERLINK":"http://www.virginiagolf.com/international.html"},"coordinates":[7568,8924]},{"type":"Point","properties":{"name":"Pleasant Valley Golf Course","TYPE":"Semi-Private","MAIL_ADD":"4715 Pleasant Valley Road","CITY":"Chantilly","ZIP":20151,"PHONE":"703-222-7900","COUNTY":"Fairfax","HYPERLINK":"http://www.pleasantvalleygc.com/"},"coordinates":[7473,8921]},{"type":"Point","properties":{"name":"Jefferson District Golf Course","TYPE":"Public","MAIL_ADD":"7900 Lee Highway","CITY":"Falls Church","ZIP":22042,"PHONE":"703-573-0444","COUNTY":"Fairfax","HYPERLINK":"http://www.virginiagolf.com/jefferson.html"},"coordinates":[7793,8887]},{"type":"Point","properties":{"name":"Evergreen Country Club","TYPE":"Private","MAIL_ADD":"15900 Berkeley Drive","CITY":"Haymarket","ZIP":20169,"PHONE":"703-754-4421","COUNTY":"Prince William","HYPERLINK":"http://www.virginiagolf.com/evergreen.html"},"coordinates":[7244,8900]},{"type":"Point","properties":{"name":"Bull Run Golf Club","TYPE":"Public","MAIL_ADD":"3520 James Madison Highway","CITY":"Haymarket","ZIP":20169,"PHONE":"703-753-7777","COUNTY":"Prince William","HYPERLINK":"http://www.virginia.org/site/description.asp?AttrID=33393&MGrp=1&MCat=86&MItm=22&Rgn=10000&Page=2&Dir=F"},"coordinates":[7269,8890]},{"type":"Point","properties":{"name":"Fair Oaks Golf Park","TYPE":"Public","MAIL_ADD":"12908 Lee Jackson Memorial Hwy","CITY":"Fairfax","ZIP":22033,"PHONE":"703-222-6600","COUNTY":"Fairfax","HYPERLINK":"http://www.virginiagolf.com/fairoaks.html"},"coordinates":[7578,8894]},{"type":"Point","properties":{"name":"Oak Marr Golf Course","TYPE":"Public","MAIL_ADD":"3200 Jermantown Road","CITY":"Oakton","ZIP":22124,"PHONE":"703-255-5391","COUNTY":"Fairfax","HYPERLINK":"http://www.virginia.org/site/description.asp?AttrID=16962&MGrp=1&MCat=86&MItm=22&Rgn=10000&Page=7&Dir=F"},"coordinates":[7670,8878]},{"type":"Point","properties":{"name":"Penderbrook Golf Course","TYPE":"Semi-Private","MAIL_ADD":"3700 Golf Trail Lane","CITY":"Fairfax","ZIP":22033,"PHONE":"703-385-3700","COUNTY":"Fairfax","HYPERLINK":"http://www.virginiagolf.com/penderbrook.html"},"coordinates":[7617,8864]},{"type":"Point","properties":{"name":"Army-Navy Country Club","TYPE":"Private","MAIL_ADD":"1700 Army Navy Drive","CITY":"Arlington","ZIP":22202,"PHONE":"703-979-5826","COUNTY":"Arlington","HYPERLINK":"http://www.virginiagolf.com/armynavyarlington.html"},"coordinates":[7963,8800]},{"type":"Point","properties":{"name":"Chantilly National Golf Course and Country Club","TYPE":"Private","MAIL_ADD":"14901 Braddock Road","CITY":"Centreville","ZIP":20120,"PHONE":"703-631-9562","COUNTY":"Fairfax","HYPERLINK":"http://www.virginiagolf.com/chantillynational.html"},"coordinates":[7484,8824]},{"type":"Point","properties":{"name":"Army-Navy Country Club","TYPE":"Private","MAIL_ADD":"Pickett Road","CITY":"Fairfax","ZIP":22030,"PHONE":"703-979-5826","COUNTY":"Fairfax","HYPERLINK":"http://www.virginiagolf.com/armynavyarlington.html"},"coordinates":[7717,8800]},{"type":"Point","properties":{"name":"Fairfax National Golf Course","TYPE":"Semi-Private","MAIL_ADD":"16850 Sudley Rd","CITY":"Centreville","ZIP":20120,"PHONE":"703-631-9226","COUNTY":"Fairfax","HYPERLINK":"http://www.virginiagolf.com/fairfaxnational.html"},"coordinates":[7409,8751]},{"type":"Point","properties":{"name":"Pinecrest Golf Course","TYPE":"Public","MAIL_ADD":"6600 Little River Turnpike","CITY":"Alexandria","ZIP":22312,"PHONE":"703-941-1061","COUNTY":"Fairfax","HYPERLINK":"http://www.virginiagolf.com/pinecrest.html"},"coordinates":[7858,8691]},{"type":"Point","properties":{"name":"Country Club of Fairfax","TYPE":"Private","MAIL_ADD":"5110 Ox Road","CITY":"Fairfax","ZIP":22030,"PHONE":"703-273-3445","COUNTY":"Fairfax","HYPERLINK":"http://www.virginiagolf.com/ccfairfax.html"},"coordinates":[7660,8672]},{"type":"Point","properties":{"name":"Virginia Golf Center and Academy","TYPE":"Public","MAIL_ADD":"5801 Clifton Road","CITY":"Clifton","ZIP":20124,"PHONE":"703-830-2400","COUNTY":"Fairfax","COMMENT":"9 hole Par 3","HYPERLINK":"http://thegolfcourses.net/golfcourses/VA/36425.htm"},"coordinates":[7568,8696]},{"type":"Point","properties":{"name":"Twin Lakes Golf Course","TYPE":"Public","MAIL_ADD":"6201 Union Mill Road","CITY":"Clifton","ZIP":20124,"PHONE":"703-631-9099","COUNTY":"Fairfax","HYPERLINK":"http://www.virginiagolf.com/twinlakes.html"},"coordinates":[7562,8668]},{"type":"Point","properties":{"name":"Westfields Golf Club","TYPE":"Semi-Private","MAIL_ADD":"13940 Balmoral Greens Avenue","CITY":"Clifton","ZIP":20124,"PHONE":"703-631-3300","COUNTY":"Fairfax","HYPERLINK":"http://www.virginiagolf.com/westfields.html"},"coordinates":[7538,8563]},{"type":"Point","properties":{"name":"Belle Haven Country Club","TYPE":"Private","MAIL_ADD":"6023 Fort Hunt Road","CITY":"Alexandria","ZIP":22307,"PHONE":"703-329-2441","COUNTY":"Fairfax","HYPERLINK":"http://www.virginiagolf.com/bellehaven.html"},"coordinates":[7988,8533]},{"type":"Point","properties":{"name":"Virginia Oaks Golf Course","TYPE":"Public","MAIL_ADD":"7950 Virginia Oaks Drive","CITY":"Gainesville","ZIP":20155,"PHONE":"703-754-4200","COUNTY":"Prince William","HYPERLINK":"http://www.virginiagolf.com/virginiaoaks.html"},"coordinates":[7297,8524]},{"type":"Point","properties":{"name":"Greendale Golf Course","TYPE":"Public","MAIL_ADD":"6700 Telegraph Road","CITY":"Alexandria","ZIP":22310,"PHONE":"703-971-3788","COUNTY":"Fairfax","HYPERLINK":"http://www.virginiagolf.com/greendale.html"},"coordinates":[7909,8484]},{"type":"Point","properties":{"name":"Robert Trent Jones Golf Club","TYPE":"Private","MAIL_ADD":"One Turtle Point Drive","CITY":"Lake Manassas","ZIP":20155,"PHONE":"703-754-7533","COUNTY":"Prince William","HYPERLINK":"http://www.virginiagolf.com/roberttrentjones.html"},"coordinates":[7281,8501]},{"type":"Point","properties":{"name":"Springfield Golf and Country Club","TYPE":"Private","MAIL_ADD":"8301 Old Keene Mill Road","CITY":"Springfield","ZIP":22152,"PHONE":"730-451-8338","COUNTY":"Fairfax","HYPERLINK":"http://www.virginiagolf.com/springfield.html"},"coordinates":[7782,8495]},{"type":"Point","properties":{"name":"General's Ridge Golf Course","TYPE":"Public","MAIL_ADD":"9701 Manassas Drive","CITY":"Manassas","ZIP":20111,"PHONE":"703-335-0777","COUNTY":"Prince William","HYPERLINK":"http://www.virginiagolf.com/generalsridge.html"},"coordinates":[7533,8486]},{"type":"Point","properties":{"name":"Burke Lake Golf Course","TYPE":"Public","MAIL_ADD":"7315 Ox Road","CITY":"Fairfax Station","ZIP":22039,"PHONE":"703-221-0123","COUNTY":"Fairfax","HYPERLINK":"http://www.virginiagolf.com/burkelake.html"},"coordinates":[7678,8453]},{"type":"Point","properties":{"name":"Prince William Golf Course","TYPE":"Public","MAIL_ADD":"14631 Vint Hill Road","CITY":"Nokesville","ZIP":20181,"PHONE":"703-754-7111","COUNTY":"Prince William","HYPERLINK":"http://www.virginiagolf.com/princewilliam.html"},"coordinates":[7283,8386]},{"type":"Point","properties":{"name":"Fort Belvoir North 36","TYPE":"Military","MAIL_ADD":"8450 Bevian Street","CITY":"Fort Belvoir","ZIP":22060,"PHONE":"703-806-6017","COUNTY":"Fairfax","HYPERLINK":"http://www.virginiagolf.com/fortbelvoir.html"},"coordinates":[7859,8313]},{"type":"Point","properties":{"name":"Mount Vernon Country Club","TYPE":"Private","MAIL_ADD":"5111 Old Mill Road","CITY":"Alexandria","ZIP":22309,"PHONE":"703-780-3565","COUNTY":"Fairfax","HYPERLINK":"http://www.virginiagolf.com/mountvernon.html"},"coordinates":[7912,8260]},{"type":"Point","properties":{"name":"Fort Belvoir South 9","TYPE":"Military","MAIL_ADD":"8450 Bevian Street","CITY":"Fort Belvoir","ZIP":22060,"PHONE":"703-806-6017","COUNTY":"Fairfax","HYPERLINK":"http://www.virginiagolf.com/fortbelvoir.html"},"coordinates":[7883,8225]},{"type":"Point","properties":{"name":"Bristow Manor Golf Course","TYPE":"Semi-Private","MAIL_ADD":"11507 Valley View Drive","CITY":"Bristow","ZIP":20136,"PHONE":"703-368-3558","COUNTY":"Prince William","HYPERLINK":"http://www.virginiagolf.com/bristowmanor.html"},"coordinates":[7405,8229]},{"type":"Point","properties":{"name":"Old Hickory Golf Club","TYPE":"Public","MAIL_ADD":"11921 Chanceford Drive","CITY":"Woodbridge","ZIP":22192,"PHONE":"703-580-9000","COUNTY":"Prince William","COMMENT":"Estimated Boundary","HYPERLINK":"http://www.virginia.org/site/description.asp?AttrID=33384&MGrp=1&MCat=86&MItm=22&Rgn=10000&SrchLocality=Prince%20William&Page=1&Dir="},"coordinates":[7635,8172]},{"type":"Point","properties":{"name":"Lakeridge Golf Course","TYPE":"Public","MAIL_ADD":"12350 Cotton Mill Drive","CITY":"Woodbridge","ZIP":22192,"PHONE":"703-494-5564","COUNTY":"Prince William","HYPERLINK":"http://www.virginiagolf.com/lakeridge.html"},"coordinates":[7665,8170]},{"type":"Point","properties":{"name":"Pohick Bay Golf Course","TYPE":"Public","MAIL_ADD":"10301 Gunston Road","CITY":"Lorton","ZIP":22079,"PHONE":"703-339-8585","COUNTY":"Fairfax","HYPERLINK":"http://www.virginiagolf.com/pohickbay.html"},"coordinates":[7814,8134]},{"type":"Point","properties":{"name":"Osprey's Golf Course","TYPE":"Public","MAIL_ADD":"13401 Potomac Path Drive","CITY":"Woodbridge","ZIP":22191,"PHONE":"703-497-1384","COUNTY":"Prince William","HYPERLINK":"http://www.virginiagolf.com/ospreys.html"},"coordinates":[7765,8036]},{"type":"Point","properties":{"name":"Fauquier Springs Country Club","TYPE":"Private","MAIL_ADD":"9236 Tournament Drive","CITY":"Warrenton","ZIP":20186,"PHONE":"540-347-4209","COUNTY":"Fauquier","HYPERLINK":"http://www.virginiagolf.com/fauquiersprings.html"},"coordinates":[6987,8035]},{"type":"Point","properties":{"name":"Montclair Country Club","TYPE":"Private","MAIL_ADD":"16500 Edgewood Drive","CITY":"Montclair","ZIP":22026,"PHONE":"703-670-4770","COUNTY":"Prince William","HYPERLINK":"http://www.virginiagolf.com/montclair.html"},"coordinates":[7647,7856]},{"type":"Point","properties":{"name":"Kastle Greens Golf Course","TYPE":"Public","MAIL_ADD":"11446 Rogues Road","CITY":"Midland","ZIP":22728,"PHONE":"540-788-3144","COUNTY":"Fauquier","HYPERLINK":"http://www.virginiagolf.com/kastlegreens.html"},"coordinates":[7176,7665]},{"type":"Point","properties":{"name":"Augustine Golf and Country Club","TYPE":"Semi-Private","MAIL_ADD":"76 Monument Avenue","CITY":"Stafford","ZIP":22554,"PHONE":"540-720-7374","COUNTY":"Stafford","HYPERLINK":"http://www.virginiagolf.com/augustine.html"},"coordinates":[7474,7222]},{"type":"Point","properties":{"name":"Gauntlet Golf Club at Curtis Park","TYPE":"Private","MAIL_ADD":"18 Fairway Drive","CITY":"Fredericksburg","ZIP":22406,"PHONE":"540-752-0963","COUNTY":"Stafford","HYPERLINK":"http://www.virginiagolf.com/gauntlet.html"},"coordinates":[7357,7201]},{"type":"Point","properties":{"name":"Fredericksburg Country Club","TYPE":"Private","MAIL_ADD":"11031 Tidewater Trail","CITY":"Fredericksburg","ZIP":22408,"PHONE":"540-373-4171","COUNTY":"Spotsylvania","HYPERLINK":"http://www.virginiagolf.com/fredericksburgcc.html"},"coordinates":[7531,6539]},{"type":"Point","properties":{"name":"Four Winds Golf Course","TYPE":"Semi-Private","MAIL_ADD":"P.O. Box 7","CITY":"Rappahannock Academy","ZIP":22538,"PHONE":"804-742-5647","COUNTY":"Caroline","HYPERLINK":"http://www.virginiagolf.com/fourwinds.html"},"coordinates":[7732,6444]},{"type":"Point","properties":{"name":"Lee's Hill Golfers Club","TYPE":"Public","MAIL_ADD":"10200 Old Dominion Parkway","CITY":"Fredericksburg","ZIP":22408,"PHONE":"540-891-0111","COUNTY":"Spotsylvania","HYPERLINK":"http://www.virginiagolf.com/leeshill.html"},"coordinates":[7473,6448]},{"type":"Point","properties":{"name":"Bushfield Golf Course","TYPE":"Semi-Private","MAIL_ADD":"P.O. Box 629","CITY":"Callao","ZIP":22435,"PHONE":"804-472-2602","COUNTY":"Westmoreland","COMMENT":"Also known as Miller's Glen Country Club","HYPERLINK":"http://www.virginiagolf.com/bushfield.html"},"coordinates":[8419,6016]},{"type":"Point","properties":{"name":"Scotto's World of Golf","TYPE":"Public","MAIL_ADD":"Route 250","CITY":"Waynesboro","ZIP":22980,"PHONE":"540-943-7283","COUNTY":"Waynesboro","COMMENT":"Estimated Boundary"},"coordinates":[5765,5779]},{"type":"Point","properties":{"name":"Meadow Creek Golf Course at Pen Park","TYPE":"Public","MAIL_ADD":"1400 Pen Park Road","CITY":"Charlottesville","ZIP":22901,"PHONE":"434-977-0615","COUNTY":"Albemarle","HYPERLINK":"http://www.virginiagolf.com/meadowcreek.html"},"coordinates":[6273,5728]},{"type":"Point","properties":{"name":"Keswick","TYPE":"Private","MAIL_ADD":"701 Country Club Drive","CITY":"Keswick","ZIP":22947,"PHONE":"434-979-5436","COUNTY":"Albemarle","HYPERLINK":"http://www.virginiagolf.com/keswick.html"},"coordinates":[6387,5585]},{"type":"Point","properties":{"name":"Village Green Golf Course","TYPE":"Public","MAIL_ADD":"P.O. Box 579","CITY":"Callao","ZIP":22435,"PHONE":"804-529-6332","COUNTY":"Northumberland","HYPERLINK":"http://www.virginiagolf.com/villagegreen.html"},"coordinates":[8600,5400]},{"type":"Point","properties":{"name":"Quinton Oaks Golf Course","TYPE":"Semi-Private","MAIL_ADD":"P.O. Box 247","CITY":"Callao","ZIP":22435,"PHONE":"804-529-5367","COUNTY":"Northumberland","HYPERLINK":"http://www.virginiagolf.com/quintonoaksgc.html"},"coordinates":[8586,5314]},{"type":"Point","properties":{"name":"Royal Virginia Golf Course","TYPE":"Public","MAIL_ADD":"3181 Dukes Road","CITY":"Hadensville","ZIP":23093,"PHONE":"434-457-2041","COUNTY":"Goochland","HYPERLINK":"http://www.virginiagolf.com/royalva.html"},"coordinates":[6820,4906]},{"type":"Point","properties":{"name":"Eastern Shore Yacht and Country Club","TYPE":"Private","MAIL_ADD":"14421 Country Club Road","CITY":"Melfa","ZIP":23410,"PHONE":"757-787-4519","COUNTY":"Accomack","HYPERLINK":"http://www.virginiagolf.com/easternshore.html"},"coordinates":[9510,4216]},{"type":"Point","properties":{"name":"Crossings Golf Course","TYPE":"Public","MAIL_ADD":"800 Virginia Center Parkway","CITY":"Glen Allen","ZIP":23060,"PHONE":"804-261-0000","COUNTY":"Henrico","HYPERLINK":"http://www.virginiagolf.com/crossings.html"},"coordinates":[7516,4240]},{"type":"Point","properties":{"name":"Spring Lake Golf Course","TYPE":"Public","MAIL_ADD":"2019 Mountain Road","CITY":"Glen Allen","ZIP":23060,"PHONE":"Not available","COUNTY":"Henrico","HYPERLINK":"http://www.virginiagolf.com/springlake.html"},"coordinates":[7466,4220]},{"type":"Point","properties":{"name":"Jefferson Lakeside Country Club","TYPE":"Private","MAIL_ADD":"1700 Lakeside Drive","CITY":"Richmond","ZIP":23228,"PHONE":"804-266-2382","COUNTY":"Henrico","HYPERLINK":"http://www.virginiagolf.com/jeffersonlakeside.html"},"coordinates":[7481,4104]},{"type":"Point","properties":{"name":"Winton Country Club","TYPE":"Semi-Private","MAIL_ADD":"P.O. Box 8, Route 1","CITY":"Clifford","ZIP":24533,"PHONE":"434-946-7336","COUNTY":"Amherst","HYPERLINK":"http://www.virginiagolf.com/wintoncc.html"},"coordinates":[5566,4144]},{"type":"Point","properties":{"name":"Belmont Golf Course","TYPE":"Public","MAIL_ADD":"1600 Hilliard Road","CITY":"Richmond","ZIP":23228,"PHONE":"804-501-4653","COUNTY":"Henrico","HYPERLINK":"http://www.virginiagolf.com/belmont.html"},"coordinates":[7489,4067]},{"type":"Point","properties":{"name":"Richmond Country Club","TYPE":"Private","MAIL_ADD":"P.O. Box 37","CITY":"Manakin-Sabot","ZIP":23103,"PHONE":"804-784-5663","COUNTY":"Goochland","HYPERLINK":"http://www.virginiagolf.com/richmondcc.html"},"coordinates":[7218,4030]},{"type":"Point","properties":{"name":"Foundry Golf Club","TYPE":"Private","MAIL_ADD":"3225 Lees Landing Road'","CITY":"Powhatan","ZIP":23139,"PHONE":"804-598-9898","COUNTY":"Powhatan","HYPERLINK":"http://www.virginiagolf.com/foundry.html"},"coordinates":[7037,3979]},{"type":"Point","properties":{"name":"West Point Country Club","TYPE":"Private","MAIL_ADD":"P.O. Box 270","CITY":"West Point","ZIP":23181,"PHONE":"804-843-3168","COUNTY":"King William","HYPERLINK":"http://www.virginiagolf.com/westpoint.html"},"coordinates":[8273,3855]},{"type":"Point","properties":{"name":"Country Club of Virginia Westhampton","TYPE":"Private","MAIL_ADD":"6031 Saint Andrews Lane","CITY":"Richmond","ZIP":23233,"PHONE":"804-287-1302","COUNTY":"Richmond City","HYPERLINK":"http://www.virginiagolf.com/ccofvirginia.html"},"coordinates":[7405,3894]},{"type":"Point","properties":{"name":"Country Club of Virginia Tuckahoe","TYPE":"Private","MAIL_ADD":"709 South Gaskins Road","CITY":"Richmond","ZIP":23233,"PHONE":"804-287-1301","COUNTY":"Henrico","HYPERLINK":"http://www.virginiagolf.com/ccofvirginia.html"},"coordinates":[7290,3902]},{"type":"Point","properties":{"name":"Country Club of Virginia James River Course","TYPE":"Private","MAIL_ADD":"709 South Gaskins Road","CITY":"Richmond","ZIP":23233,"PHONE":"804-287-1301","COUNTY":"Henrico","HYPERLINK":"http://www.virginiagolf.com/ccofvirginia.html"},"coordinates":[7307,3892]},{"type":"Point","properties":{"name":"Highland Springs Golf Course","TYPE":"Public","MAIL_ADD":"300 Lee Avenue","CITY":"Highland Springs","ZIP":23075,"PHONE":"804-737-4716","COUNTY":"Henrico","HYPERLINK":"http://www.virginiagolf.com/highlandsprings.html"},"coordinates":[7661,3866]},{"type":"Point","properties":{"name":"Glenwood Golf Course","TYPE":"Semi-Private","MAIL_ADD":"3100 Creighton Road","CITY":"Richmond","ZIP":23223,"PHONE":"804-226-1793","COUNTY":"Henrico","HYPERLINK":"http://www.virginiagolf.com/glenwood.html"},"coordinates":[7579,3825]},{"type":"Point","properties":{"name":"Willow Oaks Country Club","TYPE":"Private","MAIL_ADD":"6228 Forest Hill Avenue","CITY":"Richmond","ZIP":23225,"PHONE":"804-272-1455","COUNTY":"Richmond City","HYPERLINK":"http://www.virginiagolf.com/willowoaks.html"},"coordinates":[7437,3773]},{"type":"Point","properties":{"name":"Salisbury Country Club","TYPE":"Private","MAIL_ADD":"13620 Salisbury Road","CITY":"Midlothian","ZIP":23113,"PHONE":"804-794-8255","COUNTY":"Chesterfield","HYPERLINK":"http://www.virginiagolf.com/salisbury.html"},"coordinates":[7253,3730]},{"type":"Point","properties":{"name":"Windy Hill Sports","TYPE":"Public","MAIL_ADD":"16500 Midlothian Turnpike","CITY":"Midlothian","ZIP":23140,"PHONE":"804-794-7193","COUNTY":"Chesterfield","HYPERLINK":"http://www.virginiagolf.com/windyhill.html"},"coordinates":[7177,3667]},{"type":"Point","properties":{"name":"Mill Quarter Plantation Golf Course","TYPE":"Public","MAIL_ADD":"1525 Mill Quarter Plantation Road","CITY":"Powhatan","ZIP":23139,"PHONE":"804-598-4221","COUNTY":"Powhatan","HYPERLINK":"http://www.virginiagolf.com/millquarter.html"},"coordinates":[6924,3613]},{"type":"Point","properties":{"name":"Meadowbrook Country Club","TYPE":"Private","MAIL_ADD":"3700 Cogbill Road","CITY":"Richmond","ZIP":23234,"PHONE":"804-275-9189","COUNTY":"Chesterfield","HYPERLINK":"http://www.virginiagolf.com/meadowbrookcc.html"},"coordinates":[7485,3422]},{"type":"Point","properties":{"name":"Brandermill Country Club","TYPE":"Private","MAIL_ADD":"P.O. Box 1990","CITY":"Midlothian","ZIP":23112,"PHONE":"804-744-1189","COUNTY":"Chesterfield","HYPERLINK":"http://www.virginiagolf.com/brandermill.html"},"coordinates":[7260,3381]},{"type":"Point","properties":{"name":"Colonial Golf Course","TYPE":"Public","MAIL_ADD":"P.O. Box 356","CITY":"Lanexa","ZIP":23187,"PHONE":"757-566-1600","COUNTY":"James City","HYPERLINK":"http://www.virginia.org/site/description.asp?AttrID=11839&MGrp=1&MCat=86&MItm=22&Rgn=10000&StrtLtr=C"},"coordinates":[8210,3216]},{"type":"Point","properties":{"name":"Kiskiack Golf Course","TYPE":"Resort","MAIL_ADD":"8104 Club Drive","CITY":"Williamsburg","ZIP":23188,"PHONE":"757-566-2200","COUNTY":"James City","HYPERLINK":"http://www.virginia.org/site/description.asp?AttrID=26634&MGrp=1&MCat=86&MItm=22&Rgn=10000&StrtLtr=K"},"coordinates":[8367,3196]},{"type":"Point","properties":{"name":"Birkdale Golf Course","TYPE":"Semi-Private","MAIL_ADD":"8511 Royal Birkdale Drive","CITY":"Chesterfield","ZIP":23832,"PHONE":"804-739-8800","COUNTY":"Chesterfield","HYPERLINK":"http://www.virginiagolf.com/birkdale.html"},"coordinates":[7239,3191]},{"type":"Point","properties":{"name":"Ivy Hill Golf Course","TYPE":"Semi-Private","MAIL_ADD":"1327 Ivy Hill Avenue","CITY":"Forest","ZIP":24551,"PHONE":"434-525-2680","COUNTY":"Bedford","HYPERLINK":"http://www.virginiagolf.com/ivyhill.html"},"coordinates":[5205,3231]},{"type":"Point","properties":{"name":"River's Bend Golf Course","TYPE":"Public","MAIL_ADD":"11700 Hogan's Alley","CITY":"Chester","ZIP":23836,"PHONE":"804-530-1000","COUNTY":"Chesterfield","HYPERLINK":"http://www.virginia.org/site/description.asp?AttrID=11851&MGrp=1&MCat=86&MItm=22&Rgn=10000&StrtLtr=R"},"coordinates":[7624,3120]},{"type":"Point","properties":{"name":"Colonial Hills Golf Course","TYPE":"Public","MAIL_ADD":"1990 Gumtree Road","CITY":"Forest","ZIP":24551,"PHONE":"434-525-3954","COUNTY":"Bedford","HYPERLINK":"http://www.virginiagolf.com/colonialhills.html"},"coordinates":[5262,3170]},{"type":"Point","properties":{"name":"Bermuda Golf Course","TYPE":"Public","MAIL_ADD":"14101 Ramblewood Road","CITY":"Chester","ZIP":23831,"PHONE":"804-530-3800","COUNTY":"Chesterfield","HYPERLINK":"http://www.virginiagolf.com/bermuda.html"},"coordinates":[7610,3023]},{"type":"Point","properties":{"name":"Amelia Golf and Country Club","TYPE":"Semi-Private","MAIL_ADD":"9711 Wayside Avenue","CITY":"Amelia","ZIP":23002,"PHONE":"804-561-2640","COUNTY":"Amelia","HYPERLINK":"http://www.virginiagolf.com/amelia.html"},"coordinates":[6872,3063]},{"type":"Point","properties":{"name":"Highlands Golfers Club","TYPE":"Public","MAIL_ADD":"8136 Highland Glen Drive","CITY":"Chesterfield","ZIP":23838,"PHONE":"804-796-4800","COUNTY":"Chesterfield","HYPERLINK":"http://www.virginiagolf.com/highlands.html"},"coordinates":[7408,2976]},{"type":"Point","properties":{"name":"Giles Country Club","TYPE":"Private","MAIL_ADD":"500 Fort Branch Road","CITY":"Pearisburg","ZIP":24134,"PHONE":"540-921-1099","COUNTY":"Giles","HYPERLINK":"http://www.virginiagolf.com/giles.html"},"coordinates":[3482,2933]},{"type":"Point","properties":{"name":"Deer Cove Golf Course","TYPE":"Military","MAIL_ADD":"108 Sanda Avenue","CITY":"Williamsburg","ZIP":23185,"PHONE":"757-887-7101","COUNTY":"York","HYPERLINK":"http://thegolfcourses.net/golfcourses/VA/17830.htm"},"coordinates":[8558,2793]},{"type":"Point","properties":{"name":"Cedar Hills Golf Course","TYPE":"Public","MAIL_ADD":"198 Watson Drive","CITY":"Lynchburg","ZIP":24501,"PHONE":"434-239-1512","COUNTY":"Campbell","HYPERLINK":"http://www.virginiagolf.com/cedarhills.html"},"coordinates":[5363,2904]},{"type":"Point","properties":{"name":"Williamsburg National Golf Course","TYPE":"Semi-Private","MAIL_ADD":"3700 Centerville Road","CITY":"Williamsburg","ZIP":23188,"PHONE":"757-258-9642","COUNTY":"James City","HYPERLINK":"http://www.virginiagolf.com/williamsburgnational.html"},"coordinates":[8298,2740]},{"type":"Point","properties":{"name":"Lake Chesdin Golf Course","TYPE":"Public","MAIL_ADD":"21801 Lake Chesdin Parkway","CITY":"Chesterfield","ZIP":23838,"PHONE":"804-590-9900","COUNTY":"Chesterfield","HYPERLINK":"http://www.chesdin.com/recreation.htm"},"coordinates":[7265,2774]},{"type":"Point","properties":{"name":"London Downs Golf Club","TYPE":"Semi-Private","MAIL_ADD":"1400 New London Road","CITY":"Forest","ZIP":24551,"PHONE":"434-525-4653","COUNTY":"Bedford","HYPERLINK":"http://www.virginiagolf.com/londondowns.html"},"coordinates":[5222,2853]},{"type":"Point","properties":{"name":"Golden Horseshoe Golf Course","TYPE":"Resort","MAIL_ADD":"401 South England Street","CITY":"Williamsburg","ZIP":23185,"PHONE":"757-220-7767","COUNTY":"Williamsburg","HYPERLINK":"http://www.virginiagolf.com/goldenhorseshoe.html"},"coordinates":[8438,2711]},{"type":"Point","properties":{"name":"Williamsburg Country Club","TYPE":"Private","MAIL_ADD":"P.O. Box 404","CITY":"Williamsburg","ZIP":23187,"PHONE":"757-221-0573","COUNTY":"York","HYPERLINK":"http://www.virginiagolf.com/williamsburg.html"},"coordinates":[8498,2644]},{"type":"Point","properties":{"name":"Kingsmill Woods Golf Course","TYPE":"Resort","MAIL_ADD":"1010 Kingsmill Road","CITY":"Williamsburg","ZIP":23691,"PHONE":"757-253-3906","COUNTY":"James City","HYPERLINK":"http://www.virginiagolf.com/kingsmill.html"},"coordinates":[8507,2583]},{"type":"Point","properties":{"name":"Richwood Golf Club","TYPE":"Semi-Private","MAIL_ADD":"P.O. Box 215, Hockman Pike Road","CITY":"Bluefield","ZIP":24605,"PHONE":"276-322-4342","COUNTY":"Tazewell","HYPERLINK":"http://www.virginiagolf.com/richwood.html"},"coordinates":[2784,2622]},{"type":"Point","properties":{"name":"Newport News Golf Course","TYPE":"Public","MAIL_ADD":"901 Club House Way","CITY":"Newport News","ZIP":23608,"PHONE":"757-886-7925","COUNTY":"York","HYPERLINK":"http://www.virginiagolf.com/needleseye.html"},"coordinates":[8641,2414]},{"type":"Point","properties":{"name":"Lee Park Golf Course","TYPE":"Public","MAIL_ADD":"3108 Homestead Drive","CITY":"Petersburg","ZIP":23805,"PHONE":"804-733-5667","COUNTY":"Petersburg","HYPERLINK":"http://www.virginiagolf.com/leepark.html"},"coordinates":[7570,2435]},{"type":"Point","properties":{"name":"Prince George Golf Course","TYPE":"Semi-Private","MAIL_ADD":"8399 Golf Course Drive","CITY":"Disputanta","ZIP":23842,"PHONE":"804-991-2251","COUNTY":"Prince George","HYPERLINK":"http://www.virginiagolf.com/princegeorge.html"},"coordinates":[7747,2234]},{"type":"Point","properties":{"name":"Round Meadows Country Club","TYPE":"Private","MAIL_ADD":"1111 Round Meadow Drive","CITY":"Christiansburg","ZIP":24073,"PHONE":"540-382-3732","COUNTY":"Montgomery","HYPERLINK":"http://www.virginiagolf.com/roundmeadows.html"},"coordinates":[3827,2261]},{"type":"Point","properties":{"name":"The Hamptons Golf Course","TYPE":"Public","MAIL_ADD":"320 Butler Farm Road","CITY":"Hampton","ZIP":23666,"PHONE":"757-766-9148","COUNTY":"Hampton","HYPERLINK":"http://www.virginia.org/site/description.asp?AttrID=18963&MGrp=1&MCat=86&MItm=22&Rgn=10000&StrtLtr=H"},"coordinates":[8789,1980]},{"type":"Point","properties":{"name":"James River Country Club","TYPE":"Private","MAIL_ADD":"1500 Country Club Road","CITY":"Newport News","ZIP":23606,"PHONE":"757-596-3322","COUNTY":"Newport News","HYPERLINK":"http://www.virginiagolf.com/jamesriver.html"},"coordinates":[8667,1941]},{"type":"Point","properties":{"name":"Woodlands Golf Course","TYPE":"Public","MAIL_ADD":"9 Woodland Road","CITY":"Hampton","ZIP":23663,"PHONE":"757-727-1195","COUNTY":"Hampton","COMMENT":"Hampton Golf Association","HYPERLINK":"http://www.virginiagolf.com/woodlands.html"},"coordinates":[8884,1821]},{"type":"Point","properties":{"name":"Ocean View Golf Course","TYPE":"Public","MAIL_ADD":"9610 Norfolk Avenue","CITY":"Norfolk","ZIP":23503,"PHONE":"757-480-2094","COUNTY":"Norfolk","HYPERLINK":"http://www.virginiagolf.com/oceanview.html"},"coordinates":[8980,1508]},{"type":"Point","properties":{"name":"Smithfield Downs Golf Course","TYPE":"Public","MAIL_ADD":"20081 Brewers Neck","CITY":"Smithfield","ZIP":23430,"PHONE":"757-538-4100","COUNTY":"Isle of Wight","HYPERLINK":"http://www.virginiagolf.com/smithfielddowns.html"},"coordinates":[8575,1492]},{"type":"Point","properties":{"name":"Sewells Point Golf Course","TYPE":"Military","MAIL_ADD":"Naval Station Building CA99","CITY":"Norfolk","ZIP":23511,"PHONE":"757-887-4323","COUNTY":"Norfolk","HYPERLINK":"http://www.virginiagolf.com/sewellspoint.html"},"coordinates":[8934,1420]},{"type":"Point","properties":{"name":"Bayville Golf Club","TYPE":"Private","MAIL_ADD":"4137 First Court Road","CITY":"Virginia Beach","ZIP":23455,"PHONE":"757-460-2616","COUNTY":"Virginia Beach","HYPERLINK":"http://www.virginiagolf.com/bayville.html"},"coordinates":[9151,1336]},{"type":"Point","properties":{"name":"Great Oaks Country Club","TYPE":"Private","MAIL_ADD":"P.O. Box 536","CITY":"Floyd","ZIP":24091,"PHONE":"540-745-2189","COUNTY":"Floyd","HYPERLINK":"http://www.virginiagolf.com/greatoaks.html"},"coordinates":[4037,1448]},{"type":"Point","properties":{"name":"Cypress Point Golf Course","TYPE":"Semi-Private","MAIL_ADD":"5340 Club Head Road","CITY":"Virginia Beach","ZIP":23455,"PHONE":"757-490-8822","COUNTY":"Virginia Beach","HYPERLINK":"http://www.virginiagolf.com/cypresspoint.html"},"coordinates":[9089,1256]},{"type":"Point","properties":{"name":"Lake Wright","TYPE":"Public","MAIL_ADD":"6282 Northampton Boulevard","CITY":"Norfolk","ZIP":23502,"PHONE":"757-459-2255","COUNTY":"Norfolk","HYPERLINK":"http://www.virginiagolf.com/lakewright.html"},"coordinates":[9045,1259]},{"type":"Point","properties":{"name":"Princess Anne Country Club","TYPE":"Private","MAIL_ADD":"3800 Pacific Avenue","CITY":"Virginia Beach","ZIP":23451,"PHONE":"757-422-3360","COUNTY":"Virginia Beach","HYPERLINK":"http://www.virginiagolf.com/princessanne.html"},"coordinates":[9301,1208]},{"type":"Point","properties":{"name":"Cavalier Golf and Yacht Club","TYPE":"Private","MAIL_ADD":"1052 Cardinal Road","CITY":"Virginia Beach","ZIP":23451,"PHONE":"757-428-6161","COUNTY":"Virginia Beach","HYPERLINK":"http://www.virginiagolf.com/cavalier.html"},"coordinates":[9286,1183]},{"type":"Point","properties":{"name":"Saltville Golf Club","TYPE":"Public","MAIL_ADD":"1 Stadium Drive","CITY":"Saltville","ZIP":24370,"PHONE":"276-496-7779","COUNTY":"Smyth","HYPERLINK":"http://www.virginiagolf.com/saltville.html"},"coordinates":[2204,1232]},{"type":"Point","properties":{"name":"Sleepy Hole Golf Course","TYPE":"Public","MAIL_ADD":"P.O. Box 5010","CITY":"Suffolk","ZIP":23435,"PHONE":"757-538-4100","COUNTY":"Suffolk","HYPERLINK":"http://www.virginiagolf.com/sleepyhole.html"},"coordinates":[8651,1100]},{"type":"Point","properties":{"name":"Owl's Creek Golf Course","TYPE":"Public","MAIL_ADD":"411 South Birdneck Road","CITY":"Virginia Beach","ZIP":23451,"PHONE":"757-428-2800","COUNTY":"Virginia Beach","HYPERLINK":"http://www.virginiagolf.com/owlscreek.html"},"coordinates":[9287,1054]},{"type":"Point","properties":{"name":"Kempsville Greens Municipal Golf Course","TYPE":"Public","MAIL_ADD":"4840 Princess Anne Road","CITY":"Virginia Beach","ZIP":23462,"PHONE":"757-474-8441","COUNTY":"Virginia Beach","HYPERLINK":"http://www.virginiagolf.com/kempsville.html"},"coordinates":[9111,1039]},{"type":"Point","properties":{"name":"Bow Creek Municipal Golf Course","TYPE":"Public","MAIL_ADD":"3425 Club House Road","CITY":"Virginia Beach","ZIP":23452,"PHONE":"757-431-3763","COUNTY":"Virginia Beach","HYPERLINK":"http://www.virginiagolf.com/bowcreek.html"},"coordinates":[9178,1030]},{"type":"Point","properties":{"name":"Aeropines Golf Course","TYPE":"Military","MAIL_ADD":"Building 3581 Naval Air Station Oceana","CITY":"Virginia Beach","ZIP":23460,"PHONE":"757-433-2866","COUNTY":"Virginia Beach","HYPERLINK":"http://www.virginiagolf.com/aeropines.html"},"coordinates":[9254,945]},{"type":"Point","properties":{"name":"Red Wing Lake Golf Course","TYPE":"Public","MAIL_ADD":"1080 Prosperity Road","CITY":"Virginia Beach","ZIP":23451,"PHONE":"804-437-4845","COUNTY":"Virginia Beach","HYPERLINK":"http://www.virginiagolf.com/redwing.html"},"coordinates":[9313,950]},{"type":"Point","properties":{"name":"Bide-A-Wee Golf Course","TYPE":"Semi-Private","MAIL_ADD":"1 Bide -A-Wee Drive","CITY":"Portsmouth","ZIP":23701,"PHONE":"757-393-8600","COUNTY":"Portsmouth","HYPERLINK":"http://www.virginiagolf.com/bideawee.html"},"coordinates":[8871,959]},{"type":"Point","properties":{"name":"Honey Bee Golf Course","TYPE":"Public","MAIL_ADD":"5016 Independence Boulevard","CITY":"Virginia Beach","ZIP":23456,"PHONE":"757-471-2768","COUNTY":"Virginia Beach","HYPERLINK":"http://www.virginiagolf.com/honeybee.html"},"coordinates":[9127,866]},{"type":"Point","properties":{"name":"Greenbrier Country Club","TYPE":"Private","MAIL_ADD":"1301 Volvo Parkway","CITY":"Chesapeake","ZIP":23320,"PHONE":"804-547-7375","COUNTY":"Chesapeake","HYPERLINK":"http://www.virginiagolf.com/greenbriar.html"},"coordinates":[9022,825]},{"type":"Point","properties":{"name":"Greenway Creek Golf Course","TYPE":"Public","MAIL_ADD":"P.O. Box 1069","CITY":"Glade Spring","ZIP":24340,"PHONE":"276-429-2626","COUNTY":"Washington","HYPERLINK":"http://thegolfcourses.net/golfcourses/VA/15257.htm"},"coordinates":[2232,869]},{"type":"Point","properties":{"name":"Stumpy Lake Golf Course","TYPE":"Public","MAIL_ADD":"4797 East Indian River Road","CITY":"Virginia Beach","ZIP":23456,"PHONE":"757-467-6119","COUNTY":"Virginia Beach","HYPERLINK":"http://www.virginiagolf.com/stumpylake.html"},"coordinates":[9090,829]},{"type":"Point","properties":{"name":"TPC of Virginia Beach","TYPE":"Private","MAIL_ADD":"2500 Tournament Drive","CITY":"Virginia Beach","ZIP":23456,"PHONE":"757-563-9440","COUNTY":"Virginia Beach","HYPERLINK":"http://www.virginiagolf.com/tpc.html"},"coordinates":[9196,787]},{"type":"Point","properties":{"name":"Hell's Point Golf Course","TYPE":"Public","MAIL_ADD":"2700 Atwoodtown Road","CITY":"Virginia Beach","ZIP":23456,"PHONE":"757-721-3401","COUNTY":"Virginia Beach","HYPERLINK":"http://www.virginiagolf.com/hellspoint.html"},"coordinates":[9316,726]},{"type":"Point","properties":{"name":"Heron Ridge Golf Course","TYPE":"Public","MAIL_ADD":"2973 Heron Ridge Drive","CITY":"Virginia Beach","ZIP":23456,"PHONE":"757-426-3800","COUNTY":"Virginia Beach","HYPERLINK":"http://www.virginiagolf.com/heronridge.html"},"coordinates":[9246,695]},{"type":"Point","properties":{"name":"Suffolk Golf Course","TYPE":"Public","MAIL_ADD":"1227 Holland Road","CITY":"Suffolk","ZIP":23434,"PHONE":"757-539-6298","COUNTY":"Suffolk","HYPERLINK":"http://www.virginiagolf.com/suffolk.html"},"coordinates":[8534,671]},{"type":"Point","properties":{"name":"Cahoon Plantation","TYPE":"Public","MAIL_ADD":"1501 Cedar Road","CITY":"Chesapeake","ZIP":23322,"PHONE":"757-436-2775","COUNTY":"Chesapeake","HYPERLINK":"http://www.virginiagolf.com/cahoonplantation.html"},"coordinates":[8922,634]},{"type":"Point","properties":{"name":"Chesapeake Golf Club","TYPE":"Public","MAIL_ADD":"1201 Club House Drive","CITY":"Chesapeake","ZIP":23322,"PHONE":"757-436-2512","COUNTY":"Chesapeake","COMMENT":"Also called Seven Springs","HYPERLINK":"http://www.virginiagolf.com/sevensprings.html"},"coordinates":[8937,601]},{"type":"Point","properties":{"name":"Cedar Hill Country Club","TYPE":"Public","MAIL_ADD":"Route 1, Box 598","CITY":"Jonesville","ZIP":24263,"PHONE":"276-346-1535","COUNTY":"Lee","HYPERLINK":"http://www.virginiagolf.com/cedarhill.html"},"coordinates":[454,396]},{"type":"Point","properties":{"name":"Beaver Hills Golf Course","TYPE":"Public","MAIL_ADD":"325 Beaver Hill Club Drive","CITY":"Martinsville","ZIP":24112,"PHONE":"540-632-1526","COUNTY":"Henry","HYPERLINK":"http://www.virginiagolf.com/beaverhill.html"},"coordinates":[4508,710]},{"type":"Point","properties":{"name":"Blue Ridge Country Club","TYPE":"Semi-Private","MAIL_ADD":"P.O. Box 329","CITY":"Galax","ZIP":24333,"PHONE":"276-236-5637","COUNTY":"Carroll","HYPERLINK":"http://www.virginiagolf.com/blueridge.html"},"coordinates":[3315,611]},{"type":"Point","properties":{"name":"Monte Vista Golf Course","TYPE":"Semi-Private","MAIL_ADD":"102 Brooks Lane","CITY":"Gibson Station","ZIP":24248,"PHONE":"540-861-4014","COUNTY":"Lee","HYPERLINK":"http://www.virginiagolf.com/montavista.html"},"coordinates":[0,279]},{"type":"Point","properties":{"name":"Scott County Park and Golf Course","TYPE":"Public","MAIL_ADD":"Route 2","CITY":"Gate City","ZIP":24251,"PHONE":"276-452-4168","COUNTY":"Scott","HYPERLINK":"http://www.virginiagolf.com/scottcounty.html"},"coordinates":[1220,398]},{"type":"Point","properties":{"name":"Lynwood Golf and Country Club","TYPE":"Private","MAIL_ADD":"P.O. Box 4826","CITY":"Martinsville","ZIP":24115,"PHONE":"540-632-2295","COUNTY":"Henry","HYPERLINK":"http://www.virginiagolf.com/lynwood.html"},"coordinates":[4493,452]},{"type":"Point","properties":{"name":"Chatmoss Country Club","TYPE":"Private","MAIL_ADD":"P.O. Box 5063","CITY":"Martinsville","ZIP":24115,"PHONE":"540-638-7648","COUNTY":"Henry","HYPERLINK":"http://www.virginiagolf.com/chatmoss.html"},"coordinates":[4607,438]},{"type":"Point","properties":{"name":"Kinderton Country Club","TYPE":"Semi-Private","MAIL_ADD":"P.O. Box 758","CITY":"Clarkeville","ZIP":23927,"PHONE":"804-374-8822","COUNTY":"Mecklenburg","HYPERLINK":"http://www.virginiagolf.com/kinderton.html"},"coordinates":[6156,224]},{"type":"Point","properties":{"name":"River Ridge Golf Course","TYPE":"Public","MAIL_ADD":"P.O. Box 40","CITY":"Bracey","ZIP":23919,"PHONE":"804-636-2989","COUNTY":"Mecklenburg","HYPERLINK":"http://www.virginiagolf.com/riverridge.html"},"coordinates":[6656,117]},{"type":"Point","properties":{"name":"Tanglewood Shores Golf and Country Club","TYPE":"Private","MAIL_ADD":"74 Tanglewood Drive","CITY":"Bracey","ZIP":23919,"PHONE":"804-636-2254","COUNTY":"Mecklenburg","HYPERLINK":"http://www.virginiagolf.com/tanglewood.html"},"coordinates":[6764,98]},{"type":"Point","properties":{"name":"Lake Gaston Golf Course","TYPE":"Public","MAIL_ADD":"P.O. Box 487","CITY":"Gasburg","ZIP":23857,"PHONE":"434-577-2888","COUNTY":"Brunswick","HYPERLINK":"http://www.virginia.org/site/description.asp?AttrID=11858&MGrp=1&MCat=86&MItm=22&Rgn=10000&StrtLtr=L"},"coordinates":[6968,24]},{"type":"Point","properties":{"name":"Goodyear Golf Club","TYPE":"Private","MAIL_ADD":"1901 Goodyear Boulevard","CITY":"Danville","ZIP":24541,"PHONE":"804-797-1909","COUNTY":"Danville City","HYPERLINK":"http://www.virginiagolf.com/goodyear.html"},"coordinates":[5132,0]},{"type":"Point","properties":{"name":"Forest Greens Golf Course","TYPE":"Semi-Private","MAIL_ADD":"7915 South Woods","CITY":"Triangle","ZIP":22172,"PHONE":"703-221-0123","COUNTY":"Prince William","HYPERLINK":"http://www.virginiagolf.com/forestgreens.html"},"coordinates":[7625,7610]},{"type":"Point","properties":{"name":"Lake of the Woods Country Club","TYPE":"Private","MAIL_ADD":"HC75 Box 3","CITY":"Locust Grove","ZIP":22508,"PHONE":"540-972-2230","COUNTY":"Orange","HYPERLINK":"http://www.virginiagolf.com/lakeofthewoods.html"},"coordinates":[7138,6807]},{"type":"Point","properties":{"name":"Indian Creek Yacht and Country Club","TYPE":"Private","MAIL_ADD":"1934 Club Drive","CITY":"Kilmarnock","ZIP":22482,"PHONE":"804-435-3130","COUNTY":"Lancaster","HYPERLINK":"http://www.virginiagolf.com/indiancreek.html"},"coordinates":[8871,4383]},{"type":"Point","properties":{"name":"The Tartan Golf Club","TYPE":"Public","MAIL_ADD":"633 Saint Andrews Lane","CITY":"Irvington","ZIP":22480,"PHONE":"804-438-6005","COUNTY":"Lancaster","HYPERLINK":"http://www.virginia.org/site/description.asp?AttrID=23929&MGrp=1&MCat=86&MItm=22&Rgn=10000&StrtLtr=T"},"coordinates":[8755,4286]},{"type":"Point","properties":{"name":"Tides Inn Par 3","TYPE":"Resort","MAIL_ADD":"480 King Carter Drive","CITY":"Irvington","ZIP":22480,"PHONE":"804-438-5000","COUNTY":"Lancaster","HYPERLINK":"http://www.virginia.org/site/description.asp?AttrID=29138&MGrp=1&MCat=86&MItm=22&Rgn=10000&StrtLtr=T"},"coordinates":[8761,4241]},{"type":"Point","properties":{"name":"Countryside Golf Course","TYPE":"Public","MAIL_ADD":"1 Countryside Road","CITY":"Roanoke","ZIP":24017,"PHONE":"540-563-0391","COUNTY":"Roanoke","HYPERLINK":"http://www.virginiagolf.com/countryside.html"},"coordinates":[4385,2924]},{"type":"Point","properties":{"name":"Holly Oaks Golf Course","TYPE":"Military","MAIL_ADD":"P.O. Box 32 Naval Weapons Station","CITY":"Yorktown","ZIP":23692,"PHONE":"757-887-4323","COUNTY":"York","HYPERLINK":"http://www.virginiagolf.com/hollyoaks.html"},"coordinates":[8608,2710]},{"type":"Point","properties":{"name":"Roanoke Country Club","TYPE":"Private","MAIL_ADD":"3360 Country Club Drive, NW","CITY":"Roanoke","ZIP":24017,"PHONE":"540-343-1330","COUNTY":"Roanoke","HYPERLINK":"http://www.virginiagolf.com/roanokecc.html"},"coordinates":[4382,2851]},{"type":"Point","properties":{"name":"Two Rivers Country Club","TYPE":"Private","MAIL_ADD":"1400 Two Rivers Road","CITY":"Williamsburg","ZIP":23185,"PHONE":"757-258-4613","COUNTY":"James City","HYPERLINK":"http://www.virginiagolf.com/tworivers.html"},"coordinates":[8239,2655]},{"type":"Point","properties":{"name":"Hidden Valley Country Club","TYPE":"Private","MAIL_ADD":"2500 Romar Drive","CITY":"Salem","ZIP":24153,"PHONE":"540-389-8990","COUNTY":"Salem City","HYPERLINK":"http://www.virginiagolf.com/hiddenvalley.html"},"coordinates":[4310,2702]},{"type":"Point","properties":{"name":"Cardinal Golf Club","TYPE":"Military","MAIL_ADD":"P.O. Box 5010","CITY":"Fort Lee","ZIP":23805,"PHONE":"804-734-2899","COUNTY":"Prince George","HYPERLINK":"http://www.leemwr.com/golf/golf.htm"},"coordinates":[7660,2567]},{"type":"Point","properties":{"name":"Country Club of Petersburg","TYPE":"Private","MAIL_ADD":"P.O. Box 1599","CITY":"Petersburg","ZIP":23805,"PHONE":"804-733-4458","COUNTY":"Prince George","HYPERLINK":"http://www.virginiagolf.com/ccpetersburg.html"},"coordinates":[7575,2350]},{"type":"Point","properties":{"name":"Pines Golf Course","TYPE":"Military","MAIL_ADD":"3501 Mulberry Island Road","CITY":"Fort Eustis","ZIP":23604,"PHONE":"757-878-2965","COUNTY":"Newport News","HYPERLINK":"http://www.virginiagolf.com/pines.html"},"coordinates":[8554,2247]},{"type":"Point","properties":{"name":"Eagle Haven Golf Course","TYPE":"Military","MAIL_ADD":"Naval Amphibious Base Little Creek","CITY":"Norfolk","ZIP":23521,"PHONE":"757-464-8526","COUNTY":"Virginia Beach","HYPERLINK":"http://www.virginiagolf.com/eaglehaven.html"},"coordinates":[9101,1413]},{"type":"Point","properties":{"name":"Broad Bay Country Club","TYPE":"Private","MAIL_ADD":"2120 Lords Landing","CITY":"Virginia Beach","ZIP":23454,"PHONE":"757-496-9090","COUNTY":"Virginia Beach","HYPERLINK":"http://www.virginiagolf.com/broadbay.html"},"coordinates":[9230,1305]},{"type":"Point","properties":{"name":"Cedar Point Golf and Country Club","TYPE":"Private","MAIL_ADD":"P.O. Box 6138","CITY":"Suffolk","PHONE":"757-238-3554","COUNTY":"Suffolk","HYPERLINK":"http://www.virginiagolf.com/cedarpoint.html"},"coordinates":[8686,1341]},{"type":"Point","properties":{"name":"Elizabeth Manor Golf and Country Club","TYPE":"Private","MAIL_ADD":"Once Ace Parker Drive","CITY":"Portsmouth","ZIP":23701,"PHONE":"804-488-6605","COUNTY":"Portsmouth","HYPERLINK":"http://www.virginiagolf.com/elizabethmanor.html"},"coordinates":[8804,1010]},{"type":"Point","properties":{"name":"Hermitage Country Club","TYPE":"Private","MAIL_ADD":"P.O. Box 222","CITY":"Manakin-Sabot","ZIP":23103,"PHONE":"804-784-3811","COUNTY":"Goochland","HYPERLINK":"http://www.virginiagolf.com/hermitage.html"},"coordinates":[7191,4190]},{"type":"Point","properties":{"name":"Millwood Country Club","TYPE":"Private","MAIL_ADD":"P.O. Box 127","CITY":"Boyce","ZIP":22620,"PHONE":"540-837-1803","COUNTY":"Clarke","HYPERLINK":"http://www.virginiagolf.com/millwood.html"},"coordinates":[6765,9647]},{"type":"Point","properties":{"name":"Fawn Lake Country Club","TYPE":"Private","MAIL_ADD":"11300 Longstreet Drive","CITY":"Spotsylvania","ZIP":22533,"PHONE":"540-972-3084","COUNTY":"Spotsylvania","HYPERLINK":"http://www.virginiagolf.com/fawnlake.html"},"coordinates":[7181,6579]},{"type":"Point","properties":{"name":"Hanover Country Club","TYPE":"Private","MAIL_ADD":"14314 Country Club Drive","CITY":"Ashland","ZIP":23005,"PHONE":"804-752-6596","COUNTY":"Hanover","HYPERLINK":"http://www.virginiagolf.com/hanovercc.html"},"coordinates":[7393,4774]},{"type":"Point","properties":{"name":"Boonsboro Country Club","TYPE":"Private","MAIL_ADD":"Route 4 Box 147A","CITY":"Lynchburg","ZIP":24503,"PHONE":"434-384-3411","COUNTY":"Bedford","HYPERLINK":"http://www.virginiagolf.com/boonsboro.html"},"coordinates":[5287,3459]},{"type":"Point","properties":{"name":"Oakwood Country Club","TYPE":"Private","MAIL_ADD":"3409 Rivermont Avenue","CITY":"Lynchburg","ZIP":24503,"PHONE":"434-384-8777","COUNTY":"Lynchburg","HYPERLINK":"http://www.virginiagolf.com/oakwood.html"},"coordinates":[5363,3379]},{"type":"Point","properties":{"name":"Crewe Country Club","TYPE":"Private","MAIL_ADD":"317 Country Club Road","CITY":"Crewe","ZIP":23930,"PHONE":"434-645-7240","COUNTY":"Nottoway","HYPERLINK":"http://www.virginiagolf.com/crewecc.html"},"coordinates":[6693,2354]},{"type":"Point","properties":{"name":"Mecklenburg Country Club","TYPE":"Private","MAIL_ADD":"45 Country Club Drive","CITY":"Chase City","ZIP":23924,"PHONE":"804-372-4075","COUNTY":"Mecklenburg","HYPERLINK":"http://www.virginiagolf.com/mecklenburg.html"},"coordinates":[6297,964]},{"type":"Point","properties":{"name":"Emporia Country Club","TYPE":"Private","MAIL_ADD":"578 Country Club Road","CITY":"Emporia","ZIP":23847,"PHONE":"804-634-4304","COUNTY":"Greensville","HYPERLINK":"http://www.virginiagolf.com/emporiacc.html"},"coordinates":[7447,769]},{"type":"Point","properties":{"name":"Halifax Country Club","TYPE":"Private","MAIL_ADD":"5136 Halifax Road","CITY":"Halifax","ZIP":24558,"PHONE":"434-476-2940","COUNTY":"Halifax","HYPERLINK":"http://www.virginiagolf.com/halifax.html"},"coordinates":[5692,767]},{"type":"Point","properties":{"name":"South Hill Country Club","TYPE":"Private","MAIL_ADD":"P.O. Box 596","CITY":"South Hill","ZIP":23970,"PHONE":"804-757-7558","COUNTY":"Mecklenburg","HYPERLINK":"http://www.virginiagolf.com/southhill.html"},"coordinates":[6745,737]},{"type":"Point","properties":{"name":"Cypress Cove Country Club","TYPE":"Private","MAIL_ADD":"3033 Country Club Road","CITY":"Franklin","ZIP":23851,"PHONE":"757-562-2219","COUNTY":"Southampton","HYPERLINK":"http://www.virginiagolf.com/cypresscove.html"},"coordinates":[8072,580]},{"type":"Point","properties":{"name":"Tuscarora Country Club","TYPE":"Private","MAIL_ADD":"701 Golf Club Road","CITY":"Danville","ZIP":24540,"PHONE":"804-724-4191","COUNTY":"Pittsylvania","HYPERLINK":"http://www.virginiagolf.com/tuscarora.html"},"coordinates":[5069,461]},{"type":"Point","properties":{"name":"Danville Golf Club","TYPE":"Private","MAIL_ADD":"2725 West Main Street","CITY":"Danville","ZIP":24541,"PHONE":"804-792-8956","COUNTY":"Danville City","HYPERLINK":"http://www.virginiagolf.com/danville.html"},"coordinates":[5041,19]},{"type":"Point","properties":{"name":"Virginia Tech Golf Course","TYPE":"Public","MAIL_ADD":"1 Duckpond Drive","CITY":"Blacksburg","ZIP":24061,"PHONE":"540-231-6435","COUNTY":"Montgomery","HYPERLINK":"http://www.virginiagolf.com/vatech.html"},"coordinates":[3838,2585]},{"type":"Point","properties":{"name":"Bassett Country Club","TYPE":"Private","MAIL_ADD":"P.O. Box 873","CITY":"Bassett","ZIP":24055,"PHONE":"540-629-3242","COUNTY":"Henry","HYPERLINK":"http://www.virginiagolf.com/bassett.html"},"coordinates":[4442,727]},{"type":"Point","properties":{"name":"Virginian Golf Club","TYPE":"Private","MAIL_ADD":"1375 Jonesboro Road","CITY":"Bristol","ZIP":24202,"PHONE":"276-645-6959","COUNTY":"Washington","HYPERLINK":"http://www.virginiagolf.com/virginian.html"},"coordinates":[1801,275]},{"type":"Point","properties":{"name":"Dan Hall Mountain Resort","TYPE":"Semi-Private","MAIL_ADD":"Dan Hall Mt. Road","CITY":"Coeburn","ZIP":24230,"PHONE":"276-395-2487","COUNTY":"Wise","HYPERLINK":"http://www.virginiagolf.com/danhall.html"},"coordinates":[1362,1553]},{"type":"Point","properties":{"name":"Glenrochie Country Club","TYPE":"Private","MAIL_ADD":"Country Club Drive","CITY":"Abingdon","ZIP":24210,"PHONE":"276-628-3572","COUNTY":"Washington","HYPERLINK":"http://www.virginiagolf.com/glenrochie.html"},"coordinates":[1964,557]},{"type":"Point","properties":{"name":"Lonesome Pine Country Club","TYPE":"Private","MAIL_ADD":"Route 610","CITY":"Big Stone Gap","ZIP":24219,"PHONE":"276-523-0739","COUNTY":"Wise","HYPERLINK":"http://www.virginiagolf.com/lonesomepine.html"},"coordinates":[1076,1281]},{"type":"Point","properties":{"name":"Lake Bonaventure Country Club","TYPE":"Private","MAIL_ADD":"Gravel Lick Road","CITY":"Castlewood","ZIP":24224,"PHONE":"276-762-7618","COUNTY":"Russell","HYPERLINK":"http://www.virginiagolf.com/lakebonaventure.html"},"coordinates":[1578,1338]},{"type":"Point","properties":{"name":"Tazewell County Country Club","TYPE":"Private","MAIL_ADD":"Route 637","CITY":"Cliffield","ZIP":24637,"PHONE":"276-988-3593","COUNTY":"Tazewell","HYPERLINK":"http://www.virginiagolf.com/tazewell.html"},"coordinates":[2366,2116]},{"type":"Point","properties":{"name":"Fincastle Country Club","TYPE":"Private","MAIL_ADD":"Club Drive","CITY":"Bluefield","ZIP":24605,"PHONE":"276-322-4342","COUNTY":"Tazewell","HYPERLINK":"http://www.virginiagolf.com/fincastle.html"},"coordinates":[2801,2588]},{"type":"Point","properties":{"name":"Holston Hills Country Club","TYPE":"Semi-Private","MAIL_ADD":"1000 Country Club Rd","CITY":"Marion","ZIP":25354,"PHONE":"276-783-7484","COUNTY":"Smyth","HYPERLINK":"http://www.virginiagolf.com/holstonhills.html"},"coordinates":[2476,1055]},{"type":"Point","properties":{"name":"Scenic View Golf Course","TYPE":"Semi-Private","MAIL_ADD":"969 Loves Mill Rd","CITY":"Chilhowie","ZIP":24319,"PHONE":"276-646-3535","COUNTY":"Smyth","HYPERLINK":"http://www.virginiagolf.com/scenicview.html"},"coordinates":[2307,762]},{"type":"Point","properties":{"name":"Wolf Creek Golf and Country Club","TYPE":"Semi-Private","MAIL_ADD":"Route 614","CITY":"Bastian","ZIP":24314,"PHONE":"276-688-4610","COUNTY":"Bland","HYPERLINK":"http://www.virginiagolf.com/wolfcreek.html"},"coordinates":[2867,2345]},{"type":"Point","properties":{"name":"Wytheville Golf Course","TYPE":"Private","MAIL_ADD":"1325 Lee Hwy","CITY":"Wytheville","ZIP":24382,"PHONE":"540-228-2143","COUNTY":"Wythe","HYPERLINK":"http://www.virginiagolf.com/wytheville.html"},"coordinates":[3008,1478]},{"type":"Point","properties":{"name":"Galax Country Club","TYPE":"Private","MAIL_ADD":"107 Country Club Ln","CITY":"Galax","ZIP":24333,"PHONE":"276-236-2641","COUNTY":"Grayson","HYPERLINK":"http://www.virginiagolf.com/galax.html"},"coordinates":[3261,497]},{"type":"Point","properties":{"name":"Skylands Lake Golf Course and Resort","TYPE":"Public","MAIL_ADD":"Mile Post 202 Blue Ridge Pkwy","CITY":"Fancy Gap","ZIP":24328,"PHONE":"276-728-4923","COUNTY":"Carroll","HYPERLINK":"http://www.virginiagolf.com/skylandlakes.html"},"coordinates":[3471,361]},{"type":"Point","properties":{"name":"Olde Mill Resort","TYPE":"Public","MAIL_ADD":"2258 Stone Mountain Rd.","CITY":"Laurel Fork","ZIP":24352,"PHONE":"276-398-2638","COUNTY":"Carroll","HYPERLINK":"http://www.virginiagolf.com/oldemill.html"},"coordinates":[3734,534]},{"type":"Point","properties":{"name":"Draper Valley Golf Club","TYPE":"Public","MAIL_ADD":"2800 Big Valley Drive","CITY":"Draper","ZIP":24324,"PHONE":"540-980-4653","COUNTY":"Pulaski","HYPERLINK":"http://www.virginiagolf.com/drapervalley.html"},"coordinates":[3367,1697]},{"type":"Point","properties":{"name":"Thorn Spring Golf Club","TYPE":"Private","MAIL_ADD":"Route 11","CITY":"Pulaski","ZIP":24301,"PHONE":"540-980-5851","COUNTY":"Pulaski","HYPERLINK":"http://www.virginiagolf.com/thornspring.html"},"coordinates":[3460,2034]},{"type":"Point","properties":{"name":"Castle Rock Golf and Recreation","TYPE":"Public","MAIL_ADD":"Castle Rock Road","CITY":"Pembroke","ZIP":24136,"PHONE":"540-626-7276","COUNTY":"Giles","HYPERLINK":"http://www.virginiagolf.com/castlerock.html"},"coordinates":[3585,2882]},{"type":"Point","properties":{"name":"Auburn Hills Golf Club","TYPE":"Semi-Private","MAIL_ADD":"1581 Turnberry Lane","CITY":"Riner","ZIP":24149,"PHONE":"540-381-4995","COUNTY":"Montgomery","HYPERLINK":"http://www.virginiagolf.com/auburnhills.html"},"coordinates":[3827,2014]},{"type":"Point","properties":{"name":"Blacksburg Municipal Golf Course","TYPE":"Public","MAIL_ADD":"800 Graves Avenue","CITY":"Blacksburg","ZIP":24060,"PHONE":"540-961-1137","COUNTY":"Montgomery","HYPERLINK":"http://www.virginiagolf.com/blacksburgmunicipal.html"},"coordinates":[3882,2570]},{"type":"Point","properties":{"name":"Blacksburg Country Club","TYPE":"Private","MAIL_ADD":"1064 Clubhouse Road","CITY":"Blacksburg","ZIP":24060,"PHONE":"540-552-9164","COUNTY":"Montgomery","HYPERLINK":"http://www.virginiagolf.com/blacksburg.html"},"coordinates":[3930,2543]},{"type":"Point","properties":{"name":"Gordon Trent Golf Course","TYPE":"Public","MAIL_ADD":"2160 Golf Course Road","CITY":"Stuart","ZIP":24171,"PHONE":"540-694-3805","COUNTY":"Patrick","HYPERLINK":"http://www.virginiagolf.com/gordontrent.html"},"coordinates":[4248,142]},{"type":"Point","properties":{"name":"Salem Golf Course","TYPE":"Public","MAIL_ADD":"601 Academy St","CITY":"Salem","ZIP":24153,"PHONE":"540-387-9802","COUNTY":"Salem City","HYPERLINK":"http://www.virginiagolf.com/salem.html"},"coordinates":[4289,2851]},{"type":"Point","properties":{"name":"Hanging Rock Golf Club","TYPE":"Public","MAIL_ADD":"1500 Red Lane","CITY":"Salem","ZIP":24153,"PHONE":"540-389-7275","COUNTY":"Roanoke","HYPERLINK":"http://www.virginiagolf.com/hangingrock.html"},"coordinates":[4282,2917]},{"type":"Point","properties":{"name":"Hollyfields Golf Club","TYPE":"Semi-Private","MAIL_ADD":"10416 Mill Creek Ln","CITY":"Bent Mountain","ZIP":24059,"PHONE":"540-929-4583","COUNTY":"Roanoke","HYPERLINK":"http://www.virginiagolf.com/hollyfields.html"},"coordinates":[4219,2278]},{"type":"Point","properties":{"name":"Hunting Hills Country Club","TYPE":"Private","MAIL_ADD":"5220 Hunting Hills Drive","CITY":"Roanoke","ZIP":24014,"PHONE":"540-774-4429","COUNTY":"Roanoke","HYPERLINK":"http://www.virginiagolf.com/huntinghills.html"},"coordinates":[4404,2538]},{"type":"Point","properties":{"name":"Old Monterey Golf Club","TYPE":"Semi-Private","MAIL_ADD":"1112 Tinker Creek Lane NE","CITY":"Roanoke","ZIP":24019,"PHONE":"540-563-0400","COUNTY":"Roanoke","HYPERLINK":"http://www.virginiagolf.com/oldmonterey.html"},"coordinates":[4470,2898]},{"type":"Point","properties":{"name":"Blue Hills Golf Course","TYPE":"Semi-Private","MAIL_ADD":"2002 Blue Hills Circle","CITY":"Roanoke","ZIP":24012,"PHONE":"540-344-7848","COUNTY":"Roanoke","HYPERLINK":"http://www.virginiagolf.com/bluehills.html"},"coordinates":[4483,2896]},{"type":"Point","properties":{"name":"Brookside Par 3 Golf","TYPE":"Public","MAIL_ADD":"6303 Williamson Rd NW","CITY":"Roanoke","ZIP":24019,"PHONE":"540-366-6059","COUNTY":"Roanoke","HYPERLINK":"http://www.virginiagolf.com/brookside.html"},"coordinates":[4429,2984]},{"type":"Point","properties":{"name":"Botetourt Country Club","TYPE":"Semi-Private","MAIL_ADD":"4444 Country Club Rd","CITY":"Fincastle","ZIP":24090,"PHONE":"540-992-1451","COUNTY":"Botetourt","HYPERLINK":"http://www.virginiagolf.com/botetourt.html"},"coordinates":[4462,3536]},{"type":"Point","properties":{"name":"Westlake Golf and Country Club","TYPE":"Semi-Private","MAIL_ADD":"360 Chestnut Creek Drive","CITY":"Hardy","ZIP":24101,"PHONE":"540-721-4214","COUNTY":"Franklin","HYPERLINK":"http://www.virginiagolf.com/westlake.html"},"coordinates":[4714,2227]},{"type":"Point","properties":{"name":"Bedford Country Club","TYPE":"Private","MAIL_ADD":"3563 Peaks Road","CITY":"Bedford","ZIP":24523,"PHONE":"540-586-8407","COUNTY":"Bedford","HYPERLINK":"http://www.virginiagolf.com/bedford.html"},"coordinates":[4933,3148]},{"type":"Point","properties":{"name":"Mariners Landing Golf and Country Club","TYPE":"Semi-Private","MAIL_ADD":"Route 1","CITY":"Huddleston","ZIP":24101,"PHONE":"540-297-7888","COUNTY":"Bedford","HYPERLINK":"http://www.virginiagolf.com/marinerslanding.html"},"coordinates":[4897,2079]},{"type":"Point","properties":{"name":"Waterfront Country Club","TYPE":"Private","MAIL_ADD":"275 Anchor Drive","CITY":"Moneta","ZIP":24121,"PHONE":"540-721-2653","COUNTY":"Franklin","HYPERLINK":"http://www.virginiagolf.com/waterfrontcc.html"},"coordinates":[4784,2099]},{"type":"Point","properties":{"name":"Waters Edge Country Club","TYPE":"Private","MAIL_ADD":"1825 Waters Edge Drive","CITY":"Penhook","ZIP":24137,"PHONE":"540-576-3343","COUNTY":"Franklin","HYPERLINK":"http://www.virginiagolf.com/watersedge.html"},"coordinates":[4838,1798]},{"type":"Point","properties":{"name":"Willow Creek Country Club","TYPE":"Public","MAIL_ADD":"Route 220","CITY":"Rocky Mount","ZIP":24151,"PHONE":"540-483-0797","COUNTY":"Franklin","HYPERLINK":"http://www.virginiagolf.com/willowcreek.html"},"coordinates":[4526,1510]},{"type":"Point","properties":{"name":"Poplar Forest Golf Course","TYPE":"Public","MAIL_ADD":"Ramblewood Road","CITY":"Forest","ZIP":24551,"PHONE":"434-525-0473","COUNTY":"Bedford","HYPERLINK":"http://www.virginiagolf.com/poplarforest.html"},"coordinates":[5269,3053]},{"type":"Point","properties":{"name":"Lexington Golf and Country Club","TYPE":"Private","MAIL_ADD":"141 Country Club Road","CITY":"Lexington","ZIP":24450,"PHONE":"540-463-3542","COUNTY":"Lexington City","HYPERLINK":"http://www.virginiagolf.com/lexington.html"},"coordinates":[5031,4662]},{"type":"Point","properties":{"name":"Cedars Country Club","TYPE":"Semi-Private","MAIL_ADD":"1029 Anderson Mill Road","CITY":"Chatham","ZIP":24531,"PHONE":"804-656-8036","COUNTY":"Pittsylvania","HYPERLINK":"http://www.virginiagolf.com/cedars.html"},"coordinates":[5081,1299]},{"type":"Point","properties":{"name":"Ringgold Golf Club","TYPE":"Public","MAIL_ADD":"1493 Ringgold Road","CITY":"Ringgold","ZIP":24586,"PHONE":"434-822-8728","COUNTY":"Pittsylvania","HYPERLINK":"http://www.virginiagolf.com/ringgold.html"},"coordinates":[5233,153]},{"type":"Point","properties":{"name":"Glen Oak Country Club","TYPE":"Private","MAIL_ADD":"Stokesland Avenue","CITY":"Danville","ZIP":24541,"PHONE":"434-792-9178","COUNTY":"Danville City","HYPERLINK":"http://www.virginiagolf.com/glenoak.html"},"coordinates":[5062,28]},{"type":"Point","properties":{"name":"Forest Park Country Club","TYPE":"Private","MAIL_ADD":"1821 Mulberry Road","CITY":"Martinsville","ZIP":24112,"PHONE":"540-632-1711","COUNTY":"Martinsville City","HYPERLINK":"http://www.virginiagolf.com/forestpark.html"},"coordinates":[4572,383]},{"type":"Point","properties":{"name":"Alleghany Country Club","TYPE":"Semi-Private","MAIL_ADD":"111A E Country Club Lane","CITY":"Covington","ZIP":24426,"PHONE":"540-862-5789","COUNTY":"Alleghany","HYPERLINK":"http://www.virginiagolf.com/alleghany.html"},"coordinates":[4481,4721]},{"type":"Point","properties":{"name":"Cliftondale Country Club","TYPE":"Semi-Private","MAIL_ADD":"Cliftondale Country Club Road","CITY":"Clifton Forge","ZIP":24422,"PHONE":"540-862-2081","COUNTY":"Alleghany","HYPERLINK":"http://www.virginiagolf.com/cliftondale.html"},"coordinates":[4626,4857]},{"type":"Point","properties":{"name":"Cliff View Golf Club","TYPE":"Public","MAIL_ADD":"410 Friels Drive","CITY":"Covington","ZIP":24426,"PHONE":"540-962-2200","COUNTY":"Alleghany","COMMENT":"Estimated Boundary","HYPERLINK":"http://thegolfcourses.net/golfcourses/VA/18415.htm"},"coordinates":[4404,5032]},{"type":"Point","properties":{"name":"Altavista Country Club","TYPE":"Private","MAIL_ADD":"Country Club Road","CITY":"Hurt","ZIP":24563,"PHONE":"804-324-7276","COUNTY":"Pittsylvania","HYPERLINK":"http://www.virginiagolf.com/altavista.html"},"coordinates":[5216,2010]},{"type":"Point","properties":{"name":"Hat Creek Golf Course","TYPE":"Public","MAIL_ADD":"Rural Route 1","CITY":"Brookneal","ZIP":24528,"PHONE":"804-376-2292","COUNTY":"Campbell","HYPERLINK":"http://www.virginiagolf.com/hatcreek.html"},"coordinates":[5682,2110]},{"type":"Point","properties":{"name":"Green's Folly Golf Course","TYPE":"Public","MAIL_ADD":"1085 Greens Foley Road","CITY":"South Boston","ZIP":24592,"PHONE":"434-572-4998","COUNTY":"Halifax","HYPERLINK":"http://www.virginiagolf.com/greensfolly.html"},"coordinates":[5689,710]},{"type":"Point","properties":{"name":"Briery Country Club","TYPE":"Private","MAIL_ADD":"Highway 651","CITY":"Keysville","ZIP":23947,"PHONE":"804-736-8569","COUNTY":"Charlotte","HYPERLINK":"http://www.virginiagolf.com/briery.html"},"coordinates":[6235,1994]},{"type":"Point","properties":{"name":"Falling River Country Club","TYPE":"Private","MAIL_ADD":"Rural Route 4","CITY":"Appomatox","ZIP":24522,"PHONE":"434-352-7037","COUNTY":"Appomatox","HYPERLINK":"http://www.virginiagolf.com/fallingriver.html"},"coordinates":[5754,2996]},{"type":"Point","properties":{"name":"Longwood Golf Course","TYPE":"Public","MAIL_ADD":"Johnston Street","CITY":"Farmville","ZIP":23901,"PHONE":"434-395-2613","COUNTY":"Prince Edward","HYPERLINK":"http://www.virginiagolf.com/longwood.html"},"coordinates":[6360,2821]},{"type":"Point","properties":{"name":"Heartland Golf Club","TYPE":"Semi-Private","MAIL_ADD":"36 Wedgwood Drive","CITY":"Farmville","ZIP":23901,"PHONE":"434-392-6656","COUNTY":"Cumberland","COMMENT":"Also listed as Landing View Golf Course","HYPERLINK":"http://www.virginiagolf.com/heartland.html"},"coordinates":[6294,3056]},{"type":"Point","properties":{"name":"Gypsy Hill Golf Club","TYPE":"Public","MAIL_ADD":"Gypsy Hill Park","CITY":"Staunton","ZIP":24401,"PHONE":"540-332-3949","COUNTY":"Augusta","HYPERLINK":"http://www.virginiagolf.com/gypsyhill.html"},"coordinates":[5492,6139]},{"type":"Point","properties":{"name":"Ingleside Resort and Country Club","TYPE":"Public","MAIL_ADD":"1410 Commerce Road","CITY":"Staunton","ZIP":24401,"PHONE":"540-248-1201","COUNTY":"Augusta","HYPERLINK":"http://www.virginiagolf.com/ingleside.html"},"coordinates":[5558,6247]},{"type":"Point","properties":{"name":"Country Club of Staunton","TYPE":"Semi-Private","MAIL_ADD":"Country Club Road","CITY":"Staunton","ZIP":24401,"PHONE":"540-248-7273","COUNTY":"Staunton City","HYPERLINK":"http://www.virginiagolf.com/ccstaunton.html"},"coordinates":[5588,6193]},{"type":"Point","properties":{"name":"Waynesboro Country Club","TYPE":"Private","MAIL_ADD":"1117 Meadowbrook Road","CITY":"Waynesboro","ZIP":22980,"PHONE":"540-942-9340","COUNTY":"Waynesboro","HYPERLINK":"http://www.virginiagolf.com/waynesboro.html"},"coordinates":[5703,5766]},{"type":"Point","properties":{"name":"Swannanoa Country Club","TYPE":"Public","MAIL_ADD":"Rural Route 1","CITY":"Afton","ZIP":22920,"PHONE":"540-943-8864","COUNTY":"Augusta","HYPERLINK":"http://www.virginiagolf.com/swannanoa.html"},"coordinates":[5746,5611]},{"type":"Point","properties":{"name":"Wintergreen Resort - Devil's Knob","TYPE":"Resort","MAIL_ADD":"Route 664","CITY":"Nellysford","ZIP":22958,"PHONE":"434-325-2200","COUNTY":"Nelson","HYPERLINK":"http://www.virginiagolf.com/devilsknob.html"},"coordinates":[5660,5242]},{"type":"Point","properties":{"name":"Wintergreen Resort - Stony Creek Course","TYPE":"Resort","MAIL_ADD":"Route 664","CITY":"Nellysford","ZIP":22958,"PHONE":"434-325-2200","COUNTY":"Nelson","HYPERLINK":"http://www.virginiagolf.com/stoneycreek.html"},"coordinates":[5750,5146]},{"type":"Point","properties":{"name":"Cascades Course at the Homestead","TYPE":"Resort","MAIL_ADD":"Route 687","CITY":"Hot Springs","ZIP":24445,"PHONE":"540-839-3083","COUNTY":"Bath","HYPERLINK":"http://www.virginiagolf.com/cascades.html"},"coordinates":[4481,5443]},{"type":"Point","properties":{"name":"Old Course at The Homestead","TYPE":"Resort","MAIL_ADD":"Box 2000","CITY":"Hot Springs","ZIP":24445,"PHONE":"540-839-3083","COUNTY":"Bath","HYPERLINK":"http://www.virginiagolf.com/homestead.html"},"coordinates":[4588,5544]},{"type":"Point","properties":{"name":"Cascades Golf Club","TYPE":"Public","MAIL_ADD":"Route 2","CITY":"Hot Springs","ZIP":24445,"PHONE":"540-839-3083","COUNTY":"Bath","HYPERLINK":"http://www.virginiagolf.com/lowercascades.html"},"coordinates":[4530,5349]},{"type":"Point","properties":{"name":"Farmington Country Club","TYPE":"Private","MAIL_ADD":"1 Country Club Circle","CITY":"Charlottesville","ZIP":22901,"PHONE":"434-293-3153","COUNTY":"Albemarle","HYPERLINK":"http://www.virginiagolf.com/farmington.html"},"coordinates":[6165,5762]},{"type":"Point","properties":{"name":"Birdwood Golf Course","TYPE":"Public","MAIL_ADD":"410 Golf Course Drive","CITY":"Charlottesville","ZIP":22901,"PHONE":"434-293-4653","COUNTY":"Charlottesville City","HYPERLINK":"http://www.virginiagolf.com/birdwood.html"},"coordinates":[6169,5694]},{"type":"Point","properties":{"name":"McIntire Park Golf Course","TYPE":"Public","MAIL_ADD":"McIntire Park Route 250","CITY":"Charlottesville","ZIP":22902,"PHONE":"434-977-4111","COUNTY":"Charlottesville City","COMMENT":"primitive","HYPERLINK":"http://www.virginiagolf.com/mcintirepark.html"},"coordinates":[6246,5707]},{"type":"Point","properties":{"name":"Glenmore Country Club","TYPE":"Private","MAIL_ADD":"1750 Piper Way","CITY":"Keswick","ZIP":22947,"PHONE":"434-817-0502","COUNTY":"Albemarle","HYPERLINK":"http://www.virginiagolf.com/glenmore.html"},"coordinates":[6359,5510]},{"type":"Point","properties":{"name":"University of Virginia Golf Course","TYPE":"Private","MAIL_ADD":"Route 250 West","CITY":"Charlottesville","ZIP":22905,"PHONE":"434-293-4653","COUNTY":"Albemarle"},"coordinates":[6103,5722]},{"type":"Point","properties":{"name":"Morven Estate Golf Course","TYPE":"Private","MAIL_ADD":"James Monroe Parkway Route 795","CITY":"Charlottesville","ZIP":22902,"PHONE":"434-295-5087.","COUNTY":"Albemarle","HYPERLINK":"http://www.virginiagolf.com/morvenestate.html"},"coordinates":[6208,5309]},{"type":"Point","properties":{"name":"Lake Monticello Golf Course","TYPE":"Private","MAIL_ADD":"51 Bunker Boulevard","CITY":"Palmyra","ZIP":22963,"PHONE":"434-589-8263","COUNTY":"Fluvanna","HYPERLINK":"http://www.virginiagolf.com/lakemonticello.html"},"coordinates":[6433,5166]},{"type":"Point","properties":{"name":"Laurel Ridge Golf Club","TYPE":"Public","MAIL_ADD":"Route 15","CITY":"Palmyra","ZIP":22963,"PHONE":"434-589-3730","COUNTY":"Fluvanna","HYPERLINK":"http://www.virginiagolf.com/laurelridge.html"},"coordinates":[6500,5065]},{"type":"Point","properties":{"name":"Victoria Country Club","TYPE":"Private","MAIL_ADD":"Poorhouse Road","CITY":"Victoria","ZIP":23974,"PHONE":"434-696-3019","COUNTY":"Lunenburg","HYPERLINK":"http://www.virginiagolf.com/victoriacc.html"},"coordinates":[6599,1713]},{"type":"Point","properties":{"name":"Lunenburg Country Club","TYPE":"Private","MAIL_ADD":"Route 137","CITY":"Kenbridge","ZIP":23944,"PHONE":"434-676-8774","COUNTY":"Lunenburg","HYPERLINK":"http://www.virginiagolf.com/lunenburg.html"},"coordinates":[6702,1527]},{"type":"Point","properties":{"name":"Nottoway River Country Club","TYPE":"Private","MAIL_ADD":"Route 1","CITY":"Blackstone","ZIP":23824,"PHONE":"434-292-4485","COUNTY":"Nottoway","HYPERLINK":"http://www.virginiagolf.com/nottowayriver.html"},"coordinates":[6783,1895]},{"type":"Point","properties":{"name":"Brunswick Country Club","TYPE":"Private","MAIL_ADD":"Highway 46 North","CITY":"Lawrenceville","ZIP":23141,"PHONE":"434-848-2933","COUNTY":"Brunswick","HYPERLINK":"http://www.virginiagolf.com/brunswick.html"},"coordinates":[6962,940]},{"type":"Point","properties":{"name":"Needle's Eye Golf Club","TYPE":"Private","MAIL_ADD":"Highway 220","CITY":"Monteray","ZIP":24465,"PHONE":"540-468-2427","COUNTY":"Highland","HYPERLINK":"http://www.virginiagolf.com/needleseye.html"},"coordinates":[4862,6982]},{"type":"Point","properties":{"name":"Spotswood Country Club","TYPE":"Private","MAIL_ADD":"1980 Country Club Road","CITY":"Harrisonburg","ZIP":22802,"PHONE":"540-434-4886","COUNTY":"Harrisonburg City","HYPERLINK":"http://www.virginiagolf.com/spotswood.html"},"coordinates":[5803,7168]},{"type":"Point","properties":{"name":"Lakeview Golf Course","TYPE":"Semi-Private","MAIL_ADD":"4101 Shen Lake Drive","CITY":"Harrisonburg","ZIP":22801,"PHONE":"540-434-8937","COUNTY":"Harrisonburg City","HYPERLINK":"http://www.virginiagolf.com/lakeview.html"},"coordinates":[5813,7021]},{"type":"Point","properties":{"name":"Massanutten Resort and Golf Course","TYPE":"Resort","MAIL_ADD":"Route 644","CITY":"Harrisonburg","ZIP":22840,"PHONE":"540-289-4919","COUNTY":"Rockingham","HYPERLINK":"http://www.virginiagolf.com/massanutten.html"},"coordinates":[5908,7108]},{"type":"Point","properties":{"name":"Greene Hills Golf Club","TYPE":"Semi-Private","MAIL_ADD":"3858 Dundee Road","CITY":"Stanardsville","ZIP":22973,"PHONE":"434-985-7328","COUNTY":"Greene","HYPERLINK":"http://www.virginiagolf.com/greenehills.html"},"coordinates":[6335,6773]},{"type":"Point","properties":{"name":"Caverns Country Club","TYPE":"Semi-Private","MAIL_ADD":"970 Highway 211 W","CITY":"Luray","ZIP":22835,"PHONE":"540-743-7111","COUNTY":"Page","HYPERLINK":"http://www.virginiagolf.com/caverns.html"},"coordinates":[6202,8095]},{"type":"Point","properties":{"name":"Shenvalee","TYPE":"Resort","MAIL_ADD":"9660 Fairway Drive","CITY":"New Market","ZIP":22844,"PHONE":"540-740-3181","COUNTY":"Shenandoah","HYPERLINK":"http://www.virginiagolf.com/shenvalee.html"},"coordinates":[6007,7962]},{"type":"Point","properties":{"name":"Bryce Resort","TYPE":"Resort","MAIL_ADD":"Route 263 West","CITY":"Basye","ZIP":22810,"PHONE":"540-856-2124","COUNTY":"Shenandoah","HYPERLINK":"http://www.virginiagolf.com/bryceresort.html"},"coordinates":[5886,8651]},{"type":"Point","properties":{"name":"Tanyard Country Club","TYPE":"Semi-Private","MAIL_ADD":"404 East Main Street","CITY":"Louisa","ZIP":23093,"PHONE":"540-967-1889","COUNTY":"Louisa","HYPERLINK":"http://www.virginiagolf.com/tanyardcc.html"},"coordinates":[6832,5577]},{"type":"Point","properties":{"name":"Shenandoah Crossing","TYPE":"Resort","MAIL_ADD":"10 Shenandoah Crossing Drive","CITY":"Gordonsville","ZIP":22942,"PHONE":"540-832-9543","COUNTY":"Louisa","HYPERLINK":"http://www.virginiagolf.com/shenandoahcrossing.html"},"coordinates":[6647,5864]},{"type":"Point","properties":{"name":"Sycamore Creek Golf Course","TYPE":"Public","MAIL_ADD":"1991 Manakin Road","CITY":"Manakin Sabot","ZIP":23103,"PHONE":"804-784-3544","COUNTY":"Goochland","HYPERLINK":"http://www.virginiagolf.com/sycamorecreek.html"},"coordinates":[7212,4295]},{"type":"Point","properties":{"name":"Hollows Golf Club","TYPE":"Public","MAIL_ADD":"14501 Greenwood Church Road","CITY":"Montpelier","ZIP":23192,"PHONE":"804-798-2949","COUNTY":"Hanover","HYPERLINK":"http://www.virginiagolf.com/hollows.html"},"coordinates":[7324,4728]},{"type":"Point","properties":{"name":"Front Royal Country Club","TYPE":"Public","MAIL_ADD":"PO Box 1260","CITY":"Front Royal","ZIP":22630,"PHONE":"540-636-9061","COUNTY":"Warren","HYPERLINK":"http://www.virginiagolf.com/frontroyal.html"},"coordinates":[6603,9198]},{"type":"Point","properties":{"name":"Shenandoah Valley Golf Club","TYPE":"Semi-Private","MAIL_ADD":"134 Golf Club Circle","CITY":"Front Royal","ZIP":22630,"PHONE":"540-636-2641","COUNTY":"Warren","HYPERLINK":"http://www.virginia.org/site/description.asp?AttrID=15228&MGrp=1&MCat=86&MItm=22&Rgn=10000&StrtLtr=S"},"coordinates":[6670,9320]},{"type":"Point","properties":{"name":"Bowling Green Country Club","TYPE":"Public","MAIL_ADD":"838 Bowling Green Road","CITY":"Front Royal","ZIP":22630,"PHONE":"540-635-2024","COUNTY":"Warren","HYPERLINK":"http://www.virginiagolf.com/bowlinggreencc.html"},"coordinates":[6678,9299]},{"type":"Point","properties":{"name":"South Wales Golf Club","TYPE":"Public","MAIL_ADD":"18363 Golf Lanen","CITY":"Jeffersonton","ZIP":22724,"PHONE":"540-937-3250","COUNTY":"Culpeper","HYPERLINK":"http://www.virginiagolf.com/southwales.html"},"coordinates":[6937,8077]},{"type":"Point","properties":{"name":"Country Club of Culpeper","TYPE":"Private","MAIL_ADD":"2100 Country Club Road","CITY":"Culpeper","ZIP":22701,"PHONE":"540-825-1746","COUNTY":"Culpeper","HYPERLINK":"http://www.virginiagolf.com/ccofculpepper.html"},"coordinates":[6807,7300]},{"type":"Point","properties":{"name":"Browning's Golf Course","TYPE":"Public","MAIL_ADD":"27503 Old Office Road","CITY":"Unionville","ZIP":22701,"PHONE":"540-854-4454","COUNTY":"Orange","HYPERLINK":"http://www.virginiagolf.com/browning.html"},"coordinates":[6939,6766]},{"type":"Point","properties":{"name":"Meadows Farms Golf Club","TYPE":"Public","MAIL_ADD":"4300 Flat Run Road","CITY":"Locust Grove","ZIP":22508,"PHONE":"540-854-9890","COUNTY":"Orange","HYPERLINK":"http://www.virginia.org/site/description.asp?AttrID=19812&MGrp=1&MCat=86&MItm=22&Rgn=10000&StrtLtr=M"},"coordinates":[7103,6859]},{"type":"Point","properties":{"name":"Somerset Golf Club","TYPE":"Semi-Private","MAIL_ADD":"35448 Somerset Ridge Road","CITY":"Locust Grove","ZIP":22508,"PHONE":"540-423-1500","COUNTY":"Orange","COMMENT":"Estimated Boundary","HYPERLINK":"http://www.virginiagolf.com/somerset.html"},"coordinates":[7128,6986]},{"type":"Point","properties":{"name":"Aquia Harbour Golf and Country Club","TYPE":"Semi-Private","MAIL_ADD":"204 Bow Cove","CITY":"Stafford","ZIP":22554,"PHONE":"540-659-4478","COUNTY":"Stafford","HYPERLINK":"http://www.virginiagolf.com/aquiaharbour.html"},"coordinates":[7600,7329]},{"type":"Point","properties":{"name":"Virginia National Golf Club","TYPE":"Private","MAIL_ADD":"1400 Parker Lane","CITY":"Bluemont","ZIP":20135,"PHONE":"888-283-4653","COUNTY":"Clarke","HYPERLINK":"http://www.virginiagolf.com/virginianational.html"},"coordinates":[6988,9876]},{"type":"Point","properties":{"name":"Raspberry Falls Golf and Hunt Club","TYPE":"Semi-Private","MAIL_ADD":"41601 Raspbery Drive","CITY":"Leesburg","ZIP":20176,"PHONE":"703-779-2555","COUNTY":"Loudoun","COMMENT":"Estimated Boundary","HYPERLINK":"http://www.virginiagolf.com/raspberryfalls.html"},"coordinates":[7376,9967]},{"type":"Point","properties":{"name":"Westpark Golf Club","TYPE":"Semi-Private","MAIL_ADD":"59 Clubhouse Diver SW","CITY":"Leesburg","ZIP":20175,"PHONE":"703-777-7023","COUNTY":"Loudoun","HYPERLINK":"http://www.virginiagolf.com/westpark.html"},"coordinates":[7335,9736]},{"type":"Point","properties":{"name":"Belmont Country Club","TYPE":"Private","MAIL_ADD":"43880 Russell Branch Parkway","CITY":"Ashburn","ZIP":20147,"PHONE":"703-858-9132","COUNTY":"Loudoun","COMMENT":"Estimated Boundary","HYPERLINK":"http://www.virginiagolf.com/belmont.html"},"coordinates":[7450,9596]},{"type":"Point","properties":{"name":"Lowes Island","TYPE":"Private","MAIL_ADD":"20391 Lowes Island Boulevard","CITY":"Sterling","ZIP":20165,"PHONE":"703-444-4802","COUNTY":"Loudoun","HYPERLINK":"http://www.virginiagolf.com/lowesisland.html"},"coordinates":[7632,9571]},{"type":"Point","properties":{"name":"South Riding Golf Club","TYPE":"Semi-Private","MAIL_ADD":"43137 Golf View Drive","CITY":"South Riding","ZIP":20152,"PHONE":"703-327-3673","COUNTY":"Loudoun","COMMENT":"Estimated Boundary","HYPERLINK":"http://www.virginiagolf.com/southriding.html"},"coordinates":[7433,8979]},{"type":"Point","properties":{"name":"Hidden Creek Country Club","TYPE":"Private","MAIL_ADD":"1171 Clubhouse Road","CITY":"Reston","ZIP":20190,"PHONE":"703-437-5222","COUNTY":"Fairfax","HYPERLINK":"http://www.virginiagolf.com/hiddencreek.html"},"coordinates":[7635,9192]},{"type":"Point","properties":{"name":"Stonewall Golf Club","TYPE":"Public","MAIL_ADD":"15601 Turtle Point Drive","CITY":"Gainesville","ZIP":20155,"PHONE":"703-753-5101","COUNTY":"Prince William","HYPERLINK":"http://www.stonewallgolfclub.com/"},"coordinates":[7260,8505]},{"type":"Point","properties":{"name":"Medal of Honor Golf Club","TYPE":"Military","MAIL_ADD":"Building 3303 Fuller Heights Road","CITY":"Quantico","ZIP":22134,"PHONE":"703-784-2424","COUNTY":"Prince William","HYPERLINK":"http://www.virginiagolf.com/medalofhonor.html"},"coordinates":[7679,7557]},{"type":"Point","properties":{"name":"Willow Oaks Golf Club","TYPE":"Military","MAIL_ADD":"MWR Building 1278","CITY":"Dahlgren","ZIP":22448,"PHONE":"540-663-3002","COUNTY":"King George","COMMENT":"Also known as Dahlgren Golf Club","HYPERLINK":"http://www.nswc.navy.mil/wwwDL/CD/MWR/golf.html"},"coordinates":[8010,6773]},{"type":"Point","properties":{"name":"Cameron Hills Golf Links","TYPE":"Public","MAIL_ADD":"14140 Salem Church Road","CITY":"King George","ZIP":22485,"PHONE":"540-775-4653","COUNTY":"King George","HYPERLINK":"http://www.virginiagolf.com/cameronhills.html"},"coordinates":[7924,6262]},{"type":"Point","properties":{"name":"Woodside Country Club","TYPE":"Public","MAIL_ADD":"Route 17 N","CITY":"Tappahanock","ZIP":22560,"PHONE":"804-443-4060","COUNTY":"Essex","HYPERLINK":"http://www.virginiagolf.com/woodside.html"},"coordinates":[8163,5390]},{"type":"Point","properties":{"name":"Hobbs Hole Golf Course","TYPE":"Semi-Private","MAIL_ADD":"1267 Hobbs Hole Drive","CITY":"Tappahanock","ZIP":22560,"PHONE":"804-443-4500","COUNTY":"Essex","HYPERLINK":"http://www.virginiagolf.com/hobbshole.html"},"coordinates":[8233,5146]},{"type":"Point","properties":{"name":"Piankatank River Golf Course","TYPE":"Public","MAIL_ADD":"PO Box 424, Route 708","CITY":"Hartfield","ZIP":23071,"PHONE":"804-776-6516","COUNTY":"Middlesex","COMMENT":"Estimated Boundary","HYPERLINK":"http://www.virginiagolf.com/piankatank.html"},"coordinates":[8698,3827]},{"type":"Point","properties":{"name":"Gloucester Country Club","TYPE":"Public","MAIL_ADD":"6731 Golf Club Road","CITY":"Gloucester","ZIP":23061,"PHONE":"804-693-2662","COUNTY":"Gloucester","COMMENT":"pasture golf","HYPERLINK":"http://www.virginiagolf.com/gloucester.html"},"coordinates":[8634,3239]},{"type":"Point","properties":{"name":"Windjammer Golf Course","TYPE":"Public","MAIL_ADD":"Highway 695","CITY":"White Stone","ZIP":22578,"PHONE":"804-435-1166","COUNTY":"Lancaster","COMMENT":"Estimated Boundary","HYPERLINK":"http://www.virginiagolf.com/windjammer.html"},"coordinates":[8934,4066]},{"type":"Point","properties":{"name":"Northampton Golf Course","TYPE":"Semi-Private","MAIL_ADD":"PO Box 267","CITY":"Cape Charles","ZIP":23310,"PHONE":"757-331-8423","COUNTY":"Northampton","HYPERLINK":"http://www.virginiagolf.com/northampton.html"},"coordinates":[9277,2755]},{"type":"Point","properties":{"name":"Captain's Cove Golf and Yacht Club","TYPE":"Public","MAIL_ADD":"Route 679","CITY":"Greenbackville","ZIP":23356,"PHONE":"757-824-5478","COUNTY":"Accomack","COMMENT":"Estimated Boundary","HYPERLINK":"http://www.virginiagolf.com/captainscove.html"},"coordinates":[9999,5513]},{"type":"Point","properties":{"name":"Brookwoods Golf Club","TYPE":"Public","MAIL_ADD":"7325 Club Drive","CITY":"Quinton","ZIP":23141,"PHONE":"804-932-3737","COUNTY":"New Kent","HYPERLINK":"http://www.virginiagolf.com/brookwoods.html"},"coordinates":[7852,3642]},{"type":"Point","properties":{"name":"Stonehouse Golf Club","TYPE":"Semi-Private","MAIL_ADD":"9540 Old Stage Road","CITY":"Toano","ZIP":23168,"PHONE":"757-566-1138","COUNTY":"James City","COMMENT":"Estimated Boundary","HYPERLINK":"http://www.virginia.org/site/description.asp?AttrID=15531&MGrp=1&MCat=86&MItm=22&Rgn=10000&StrtLtr=S"},"coordinates":[8282,3355]},{"type":"Point","properties":{"name":"Ford's Colony Golf Course","TYPE":"Semi-Private","MAIL_ADD":"240 Ford's Colony Drive","CITY":"Williamsburg","ZIP":23188,"PHONE":"757-258-4130","COUNTY":"James City","HYPERLINK":"http://www.virginiagolf.com/fordscolonycc.html"},"coordinates":[8323,2865]},{"type":"Point","properties":{"name":"Ford's Colony Golf Course","TYPE":"Semi-Private","MAIL_ADD":"240 Ford's Colony Drive","CITY":"Williamsburg","ZIP":23188,"PHONE":"757-258-4130","COUNTY":"James City","HYPERLINK":"http://www.virginiagolf.com/fordscolonycc.html"},"coordinates":[8343,2820]},{"type":"Point","properties":{"name":"Kingsmill Golf Club","TYPE":"Resort","MAIL_ADD":"1010 Kingsmill Road","CITY":"Williamsburg","ZIP":23185,"PHONE":"757-253-3906","COUNTY":"James City","HYPERLINK":"http://www.virginiagolf.com/kingsmill.html"},"coordinates":[8465,2586]},{"type":"Point","properties":{"name":"Kingsmill Golf Course","TYPE":"Resort","MAIL_ADD":"1010 Kingsmill Road","CITY":"Williamsburg","ZIP":23185,"PHONE":"757-253-3906","COUNTY":"James City","HYPERLINK":"http://www.virginiagolf.com/kingsmill.html"},"coordinates":[8513,2567]},{"type":"Point","properties":{"name":"Piedmont Club","TYPE":"Private","MAIL_ADD":"14655 Piedmont Vista Drive","CITY":"Haymarket","ZIP":20169,"PHONE":"703-408-4971","COUNTY":"Prince William","HYPERLINK":"http://www.piedmontclub.com/"},"coordinates":[7296,8676]},{"type":"Point","properties":{"name":"Heritage Hunt Golf and Country Club","TYPE":"Private","MAIL_ADD":"6901 Arthur Hills Drive","CITY":"Gainesville","ZIP":20155,"PHONE":"703-743-1100","COUNTY":"Prince William","HYPERLINK":"http://www.heritagehuntgolf.com/index.html"},"coordinates":[7323,8656]},{"type":"Point","properties":{"name":"Jordan Point Country Club","TYPE":"Semi-Private","MAIL_ADD":"Jordan Point Road","CITY":"Hopewell","ZIP":23860,"PHONE":"804-458-0141","COUNTY":"Hopewell City","HYPERLINK":"http://www.virginiagolf.com/jordanpoint.html"},"coordinates":[7779,2846]},{"type":"Point","properties":{"name":"Stonehenge Country Club","TYPE":"Private","MAIL_ADD":"1000 Farnham Drive","CITY":"Richmond","ZIP":23236,"PHONE":"804-378-7845","COUNTY":"Chesterfield","HYPERLINK":"http://www.virginiagolf.com/stonehendge.html"},"coordinates":[7287,3608]},{"type":"Point","properties":{"name":"Cypress Creek Golfers Club","TYPE":"Semi-Private","MAIL_ADD":"600 Cypress Creek Parkway","CITY":"Smithfield","ZIP":23430,"PHONE":"757-365-4774","COUNTY":"Isle of Wight","COMMENT":"Estimated Boundary","HYPERLINK":"http://www.virginia.org/site/description.asp?AttrID=18629&MGrp=1&MCat=86&MItm=22&Rgn=10000&Page=3&Dir=F"},"coordinates":[8517,1568]},{"type":"Point","properties":{"name":"Riverfront Golf Club","TYPE":"Semi-Private","MAIL_ADD":"1000 Hill Point Road","CITY":"Suffolk","ZIP":23435,"PHONE":"757-484-2200","COUNTY":"Suffolk","COMMENT":"Also called Nansemond River","HYPERLINK":"http://www.virginiagolf.com/riverfront.html"},"coordinates":[8738,1263]},{"type":"Point","properties":{"name":"Nansemond River Golf Club","TYPE":"Semi-Private","MAIL_ADD":"1000 Hill Point Rd","CITY":"Suffolk","ZIP":23434,"PHONE":"757-539-4356","COUNTY":"Suffolk","HYPERLINK":"http://www.virginiagolf.com/nansemondriver.html"},"coordinates":[8591,878]},{"type":"Point","properties":{"name":"Norfolk Naval Base Golf Course","TYPE":"Military","MAIL_ADD":"Norfolk Naval Base","CITY":"Norfolk","ZIP":23511,"COUNTY":"Norfolk"},"coordinates":[8902,1535]},{"type":"Point","properties":{"name":"Signature at Westneck","TYPE":"Semi-Private","MAIL_ADD":"3100 Arnold Palmer Drive","CITY":"Virginia Beach","ZIP":23456,"PHONE":"757-721-2900","COUNTY":"Virginia Beach","COMMENT":"Need Info","HYPERLINK":"http://www.signatureatwestneck.com/"},"coordinates":[9210,691]},{"type":"Point","properties":{"name":"Langley AFB/Eaglewood Golf Club","TYPE":"Military","MAIL_ADD":"Box 65703","CITY":"Langley Air Force Base","ZIP":23665,"PHONE":"757-764-4547","COUNTY":"Hampton","HYPERLINK":"http://www.virginiagolf.com/eaglewood.html"},"coordinates":[8834,2059]},{"type":"Point","properties":{"name":"Kiln Creek Golf and Country Club","TYPE":"Semi-Private","MAIL_ADD":"1003 Brick Kiln Boulevard","CITY":"Newport News","ZIP":23602,"PHONE":"757-988-3220","COUNTY":"Newport News","HYPERLINK":"http://www.virginiagolf.com/kilncreek.html"},"coordinates":[8701,2177]},{"type":"Point","properties":{"name":"Baycreek Golf Club","TYPE":"Public","MAIL_ADD":"1 Clubhouse Way","CITY":"Cape Charles","ZIP":23310,"PHONE":"757-331-9000","COUNTY":"Northampton","COMMENT":"Estimated Boundary","HYPERLINK":"http://www.virginiagolf.com/baycreek.html"},"coordinates":[9279,2669]},{"type":"Point","properties":{"name":"Broad Run Golf and Practice Facility","TYPE":"Public","MAIL_ADD":"10201 Golf Academy Drive","CITY":"Bristow","ZIP":20136,"PHONE":"703-365-2443","COUNTY":"Prince William","HYPERLINK":"http://www.broadrungolf.com/"},"coordinates":[7402,8325]},{"type":"Point","properties":{"name":"First Tee of Chesterfield","TYPE":"Public","MAIL_ADD":"6736 Hunting Creek Road","CITY":"Richmond","ZIP":23237,"PHONE":"804-275-8050","COUNTY":"Chesterfield","HYPERLINK":"http://www.virginia.org/site/description.asp?AttrID=20131&MGrp=1&MCat=86&MItm=22&Rgn=10000&StrtLtr=F"},"coordinates":[7450,3244]},{"type":"Point","properties":{"name":"Independence Golf Club","TYPE":"Public","MAIL_ADD":"600 Founders Bridge Boulevard","CITY":"Midlothian","ZIP":23113,"PHONE":"804-594-0261","COUNTY":"Chesterfield","HYPERLINK":"http://www.independencegolfclub.com/"},"coordinates":[7215,3791]},{"type":"Point","properties":{"name":"Kinloch Golf Club","TYPE":"Private","MAIL_ADD":"1100 Hockett Road","CITY":"Manakin-Sabot","ZIP":23103,"PHONE":"804-784-6737","COUNTY":"Goochland","HYPERLINK":"http://www.kinlochgolfclub.com/"},"coordinates":[7214,4137]},{"type":"Point","properties":{"name":"Mattaponi Springs Golf Club at Penola Station","TYPE":"Public","MAIL_ADD":"22490 Penola Road","CITY":"Ruther Glen","ZIP":22546,"PHONE":"804-633-7888","COUNTY":"Caroline","HYPERLINK":"http://www.virginia.org/site/description.asp?AttrID=34992&MGrp=1&MCat=86&MItm=22&Rgn=10000&StrtLtr=M"},"coordinates":[7602,5332]},{"type":"Point","properties":{"name":"Golf Club of Virginia at Beacon Hill","TYPE":"Private","MAIL_ADD":"17160 Cannondale Drive","CITY":"Leesburg","ZIP":20176,"PHONE":"703-669-4600","COUNTY":"Loudoun","COMMENT":"Estimated Boundary","HYPERLINK":"http://www.vsga.org/course.asp?id=14&cid=833"},"coordinates":[7328,9905]},{"type":"Point","properties":{"name":"Providence Golf Course","TYPE":"Public","MAIL_ADD":"1160 Providence Road","CITY":"Richmond","ZIP":23236,"PHONE":"804-276-1876","COUNTY":"Chesterfield","HYPERLINK":"http://www.providencegolfcourse.com/"},"coordinates":[7369,3550]},{"type":"Point","properties":{"name":"Queenfield Plantation","TYPE":"Public","MAIL_ADD":"1896 Dabney's Mill Road","CITY":"Manquin","ZIP":23231,"PHONE":"804-769-8838","COUNTY":"King William","HYPERLINK":"http://www.queenfieldplantation.com/"},"coordinates":[7820,4410]},{"type":"Point","properties":{"name":"Dominion Club Golf Course","TYPE":"Private","MAIL_ADD":"6000 Dominion Club Drive","CITY":"Glen Allen","ZIP":23059,"PHONE":"804-360-0093","COUNTY":"Henrico","HYPERLINK":"http://www.virginiagolf.com/dominionclub.html"},"coordinates":[7312,4397]},{"type":"Point","properties":{"name":"Hunting Hawk Golf Club","TYPE":"Public","MAIL_ADD":"15201 Ashland Road","CITY":"Glen Allen","ZIP":23059,"PHONE":"(804) 749-1900","COUNTY":"Hanover","HYPERLINK":"http://www.virginiagolf.com/huntinghawk.html"},"coordinates":[7295,4427]},{"type":"Point","properties":{"name":"Clear Creek Golf Course","TYPE":"Public","MAIL_ADD":"20012 Harleywood Road","CITY":"Bristol","ZIP":24202,"PHONE":"276-466-4833","COUNTY":"Washington","HYPERLINK":"http://www.virginiagolf.com/clearcreek.html"},"coordinates":[1759,439]},{"type":"Point","properties":{"name":"Olde Farm","TYPE":"Private","MAIL_ADD":"16639 Old Jonesboro Rd","CITY":"Bristol","ZIP":24202,"PHONE":"276-669-1042","COUNTY":"Bristol","HYPERLINK":"http://thegolfcourses.net/golfcourses/VA/37611.htm"},"coordinates":[1825,341]},{"type":"Point","properties":{"name":"Deer Creek Golf Park","TYPE":"Public","MAIL_ADD":"2524 Edmonds Rd.","CITY":"Galax","ZIP":24333,"PHONE":"276-236-3221","COUNTY":"Grayson","HYPERLINK":"http://www.virginia.org/site/description.asp?AttrID=15552&MGrp=1&MCat=86&MItm=22&Rgn=10000&StrtLtr=D"},"coordinates":[3212,58]},{"type":"Point","properties":{"name":"Pete Dye River Course of Virginia Tech","TYPE":"Public","MAIL_ADD":"8400 Rivercourse Drive","CITY":"Radford","ZIP":24141,"PHONE":"540-633-6732","COUNTY":"Pulaski","HYPERLINK":"http://www.rivercoursegolf.com/"},"coordinates":[3721,2259]},{"type":"Point","properties":{"name":"Deerfield Golf Course","TYPE":"Public","MAIL_ADD":"33315 Brittany Lane","CITY":"Damascus","ZIP":24236,"PHONE":"276-475-5649","COUNTY":"Washington","HYPERLINK":"http://www.virginiagolf.com/deerfield.html"},"coordinates":[2188,389]},{"type":"Point","properties":{"name":"Longview Golf Course","TYPE":"Public","MAIL_ADD":"589 Tee Time Drive","CITY":"Galax","ZIP":24333,"PHONE":"276-523-0739","COUNTY":"Grayson","COMMENT":"pasture golf","HYPERLINK":"http://www.pasturegolf.com/courses/longview.htm"},"coordinates":[3108,277]},{"type":"Point","properties":{"name":"Ashley Plantation Golf Club","TYPE":"Semi-Private","MAIL_ADD":"Magnolia Lane","CITY":"Daleville","ZIP":24083,"PHONE":"540-992-4653","COUNTY":"Botetourt","HYPERLINK":"http://www.virginiagolf.com/ashleyplantation.html"},"coordinates":[4495,3371]},{"type":"Point","properties":{"name":"Packsaddle Ridge","TYPE":"Semi-Private","MAIL_ADD":"3067 Packsaddle Trail","CITY":"Harrisonburg","ZIP":22832,"PHONE":"540-269-8188","COUNTY":"Rockingham","HYPERLINK":"http://www.virginiagolf.com/packsaddle.html"},"coordinates":[5913,7310]},{"type":"Point","properties":{"name":"Jackson's Chase at Pine Hills","TYPE":"Public","MAIL_ADD":"65 Jackson's Chase Drive","CITY":"Front Royal","ZIP":22630,"PHONE":"540-635-7814","COUNTY":"Warren","HYPERLINK":"http://www.virginiagolf.com/jacksonschase.html"},"coordinates":[6555,9291]},{"type":"Point","properties":{"name":"Heritage Oaks","TYPE":"Public","MAIL_ADD":"680 Garbers Church Road","CITY":"Harrisonburg","ZIP":22801,"PHONE":"540-442-6502","COUNTY":"Harrisonburg","HYPERLINK":"http://www.virginia.org/site/description.asp?AttrID=33125&MGrp=1&MCat=86&MItm=22&Rgn=10000&StrtLtr=H"},"coordinates":[5724,7239]},{"type":"Point","properties":{"name":"Shadow Ridge Golf Club","TYPE":"Public","MAIL_ADD":"361 Pierces Mill Road","CITY":"Amherst","ZIP":24521,"PHONE":"434-946-2008","COUNTY":"Amherst","HYPERLINK":"http://www.virginia.org/site/description.asp?AttrID=31725&MGrp=1&MCat=86&MItm=22&Rgn=10000&StrtLtr=S"},"coordinates":[5618,3902]},{"type":"Point","properties":{"name":"Sycamore Ridge Golf Course","TYPE":"Public","MAIL_ADD":"Route 2, Box 288","CITY":"Goodview","ZIP":24095,"PHONE":"540-297-6490","COUNTY":"Bedford","HYPERLINK":"http://www.virginiagolf.com/sycamoreridge.html"},"coordinates":[4731,2443]},{"type":"Point","properties":{"name":"Oasis Sport Park","TYPE":"Public","MAIL_ADD":"15300 Cosby Rd","CITY":"Chesterfield","ZIP":23112,"PHONE":"804-739-6833","COUNTY":"Chesterfield","COMMENT":"9 hole Par 3","HYPERLINK":"http://www.oasissportspark.com/"},"coordinates":[7203,3261]},{"type":"Point","properties":{"name":"Woodberry Forest Golf Course","TYPE":"Private","MAIL_ADD":"Route 15","CITY":"Woodberry Forest","ZIP":22989,"PHONE":"540-672-3787","COUNTY":"Madison","HYPERLINK":"http://www.virginiagolf.com/woodberry.html"},"coordinates":[6676,6647]},{"type":"Point","properties":{"name":"City Park, Links at","TYPE":"Public","MAIL_ADD":"140 City Park Ave","CITY":"Portsmouth","ZIP":23701,"PHONE":"757-465-2935","COUNTY":"Portsmouth","HYPERLINK":"http://www.virginia.org/site/description.asp?AttrID=14862&MGrp=1&MCat=86&MItm=22&Rgn=10000&StrtLtr=C"},"coordinates":[8831,1067]},{"type":"Point","properties":{"name":"Brickshire, Golf Club at","TYPE":"Public","MAIL_ADD":"11010 Kentland Trail","CITY":"Providence Forge","ZIP":23140,"PHONE":"804-966-7888","COUNTY":"New Kent","HYPERLINK":"http://www.virginiagolf.com/brickshire.html"},"coordinates":[8067,3532]},{"type":"Point","properties":{"name":"Royal New Kent Golf Course","TYPE":"Public","MAIL_ADD":"5300 Bailey Road","CITY":"Providence Forge","ZIP":23140,"PHONE":"804-966-7023","COUNTY":"New Kent","HYPERLINK":"http://www.virginiagolf.com/royalnewkent.html"},"coordinates":[8035,3528]},{"type":"Point","properties":{"name":"Dominion Valley Country Club","TYPE":"Private","MAIL_ADD":"15200 Arnold Palmer Drive","CITY":"Haymarket","ZIP":20169,"PHONE":"571-261-1887","COUNTY":"Prince William","HYPERLINK":"http://www.dominionvalleycc.info/"},"coordinates":[7270,8721]},{"type":"Point","properties":{"name":"Manassas Hills Golf Course","TYPE":"Public","MAIL_ADD":"7800 Willow Pond Court","CITY":"Manassas","ZIP":20111,"PHONE":"703-368-2028","HYPERLINK":"http://www.virginiagolf.com/manassashillspar3.html"},"coordinates":[7521,8341]},{"type":"Point","properties":{"name":"Poplar Grove Golf Club","TYPE":"Semi-Private","MAIL_ADD":"380 London Lane","CITY":"Amherst","ZIP":24521,"PHONE":"434-946-9933","COUNTY":"Amherst","HYPERLINK":"http://www.virginia.org/site/description.asp?AttrID=32149&MGrp=1&MCat=86&MItm=22&Rgn=10000&StrtLtr=P"},"coordinates":[5540,3810]},{"type":"Point","properties":{"name":"Golden Eagle Golf Course at the Tides Inn","TYPE":"Resort","MAIL_ADD":"Golden Eagle Drive","CITY":"Irvington","ZIP":22480,"PHONE":"804-438-5501","COUNTY":"Lancaster","HYPERLINK":"http://www.virginia.org/site/description.asp?AttrID=13017&MGrp=1&MCat=86&MItm=22&Rgn=10000&StrtLtr=G"},"coordinates":[8794,4327]}]}},"arcs":[],"transform":{"scale":[0.0008134456302766486,0.0002619497630279212],"translate":[-83.55488228450025,36.55106650876079]},"bbox":[-83.55488228450025,36.55106650876079,-75.42123942736404,39.170302189276974]}