{"type":"Topology","objects":{"collection":{"type":"GeometryCollection","geometries":[{"type":"Point","properties":{"name":"Perdue Farms Incorporated - Ac","STREET":"22520 Lankford Hwy","CITY":"Accomac","STATE":"VA","ZIP":23301,"LAT":"37.73133800","LONG":"-75.65917700"},"coordinates":[9999,298]},{"type":"Point","properties":{"name":"Tyson Foods Incorporated - Gle","STREET":"13264 Mountain Rd","CITY":"Glen Allen","STATE":"VA","ZIP":23059,"LAT":"37.69610200","LONG":"-77.55142200"},"coordinates":[3721,0]},{"type":"Point","properties":{"name":"New Market Poultry","STREET":"145 Old Cross Road","CITY":"New Market","STATE":"VA","ZIP":22844,"LAT":"38.64820300","LONG":"-78.67307000"},"coordinates":[0,8056]},{"type":"Point","properties":{"name":"Alma Plant","STREET":"3426 Hwy 340 Business West","CITY":"Stanley","STATE":"VA","ZIP":22851,"LAT":"38.59040300","LONG":"-78.59162800"},"coordinates":[270,7567]},{"type":"Point","properties":{"name":"Georges Chicken LLC","STREET":"19992 Senedo Road","CITY":"Edinburg","STATE":"VA","ZIP":22824,"LAT":"38.87784200","LONG":"-78.61261700"},"coordinates":[201,9999]}]}},"arcs":[],"transform":{"scale":[0.00030142829470751194,0.00011818253601999013],"translate":[-78.67280972594321,37.696246463906405]},"bbox":[-78.67280972594321,37.696246463906405,-75.6588282071628,38.877953641570286]}