{"type":"FeatureCollection","features":[{"type":"Feature","geometry":{"type":"Point","coordinates":[-79.02730028553177,37.16922231380867]},"properties":{"name":"Bass Sod Farm","ADDRESS":"2703 Pigeon Run Rd","CITY":"Gladys","STATE":"VA","ZIP":24554,"LAT":"37.16907900","LONG":"-79.02756000"}},{"type":"Feature","geometry":{"type":"Point","coordinates":[-77.55168182008782,37.79920631261976]},"properties":{"name":"Brookmeade Sod Farm","ADDRESS":"14328 Medley Grove Ln","CITY":"Doswell","STATE":"VA","ZIP":23047,"LAT":"37.79906400","LONG":"-77.55197400"}},{"type":"Feature","geometry":{"type":"Point","coordinates":[-79.11814741910733,36.621585580107826]},"properties":{"name":"Daniel Sod Farm & Irrigation","ADDRESS":"2030 Davmunds Trl","CITY":"Sutherlin","STATE":"VA","ZIP":24594,"LAT":"36.62144700","LONG":"-79.11841000"}},{"type":"Feature","geometry":{"type":"Point","coordinates":[-78.26301473654988,36.65055722890999]},"properties":{"name":"Farrar Sod Farm Incorporated","ADDRESS":"996 Baskerville Rd","CITY":"Baskerville","STATE":"VA","ZIP":23915,"LAT":"36.65041500","LONG":"-78.26329600"}},{"type":"Feature","geometry":{"type":"Point","coordinates":[-76.99732795184677,37.69504646634453]},"properties":{"name":"Frog Hollow Sod Farm Incorporat","ADDRESS":"1220 Horse Landing Rd # 6","CITY":"King Willia","STATE":"VA","ZIP":23086,"LAT":"37.69490400","LONG":"-76.99763700"}},{"type":"Feature","geometry":{"type":"Point","coordinates":[-80.25215340386586,37.23270606313234]},"properties":{"name":"Laverys Sod Farm","ADDRESS":"4767 Northfork Rd","CITY":"Elliston","STATE":"VA","ZIP":24087,"LAT":"37.23257400","LONG":"-80.25238800"}},{"type":"Feature","geometry":{"type":"Point","coordinates":[-77.52063367999843,37.47380691858885]},"properties":{"name":"Virginia Sod Farms","ADDRESS":"2475 Goodes Bridge Rd","CITY":"Richmond","STATE":"VA","ZIP":23224,"LAT":"37.47365900","LONG":"-77.52092500"}}]}