{"type":"Topology","objects":{"collection":{"type":"GeometryCollection","geometries":[{"type":"Point","properties":{"name":"Bass Sod Farm","ADDRESS":"2703 Pigeon Run Rd","CITY":"Gladys","STATE":"VA","ZIP":24554,"LAT":"37.16907900","LONG":"-79.02756000"},"coordinates":[3763,4650]},{"type":"Point","properties":{"name":"Brookmeade Sod Farm","ADDRESS":"14328 Medley Grove Ln","CITY":"Doswell","STATE":"VA","ZIP":23047,"LAT":"37.79906400","LONG":"-77.55197400"},"coordinates":[8296,9999]},{"type":"Point","properties":{"name":"Daniel Sod Farm & Irrigation","ADDRESS":"2030 Davmunds Trl","CITY":"Sutherlin","STATE":"VA","ZIP":24594,"LAT":"36.62144700","LONG":"-79.11841000"},"coordinates":[3484,0]},{"type":"Point","properties":{"name":"Farrar Sod Farm Incorporated","ADDRESS":"996 Baskerville Rd","CITY":"Baskerville","STATE":"VA","ZIP":23915,"LAT":"36.65041500","LONG":"-78.26329600"},"coordinates":[6111,246]},{"type":"Point","properties":{"name":"Frog Hollow Sod Farm Incorporat","ADDRESS":"1220 Horse Landing Rd # 6","CITY":"King Willia","STATE":"VA","ZIP":23086,"LAT":"37.69490400","LONG":"-76.99763700"},"coordinates":[9999,9115]},{"type":"Point","properties":{"name":"Laverys Sod Farm","ADDRESS":"4767 Northfork Rd","CITY":"Elliston","STATE":"VA","ZIP":24087,"LAT":"37.23257400","LONG":"-80.25238800"},"coordinates":[0,5189]},{"type":"Point","properties":{"name":"Virginia Sod Farms","ADDRESS":"2475 Goodes Bridge Rd","CITY":"Richmond","STATE":"VA","ZIP":23224,"LAT":"37.47365900","LONG":"-77.52092500"},"coordinates":[8391,7236]}]}},"arcs":[],"transform":{"scale":[0.0003255150967115802,0.00011777385063625693],"translate":[-80.25215340386586,36.621585580107826]},"bbox":[-80.25215340386586,36.621585580107826,-76.99732795184677,37.79920631261976]}