{"type":"Topology","objects":{"collection":{"type":"GeometryCollection","geometries":[{"type":"Point","properties":{"name":"Barrett Elementary School","OBJECTID":1,"CODE":5,"SYMBOL":"ES","SENIORCENTER":0,"ADDRESS":"4401 HENDERSON RD"},"coordinates":[4361,4322]},{"type":"Point","properties":{"name":"Charles Drew Comm. Center","OBJECTID":2,"CODE":6,"SYMBOL":"CC","SENIORCENTER":0,"ADDRESS":"3500 23RD ST S"},"coordinates":[6429,1516]},{"type":"Point","properties":{"name":"Jamestown Elementary School","OBJECTID":3,"CODE":5,"SYMBOL":"ES","SENIORCENTER":0,"ADDRESS":"3700 N DELAWARE ST"},"coordinates":[2070,9313]},{"type":"Point","properties":{"name":"Kenmore Middle School","OBJECTID":4,"CODE":5,"SYMBOL":"MS","SENIORCENTER":0,"ADDRESS":"200 S CARLIN SPRINGS RD"},"coordinates":[2862,3482]},{"type":"Point","properties":{"name":"Key Elementary School","OBJECTID":5,"CODE":5,"SYMBOL":"ES","SENIORCENTER":0,"ADDRESS":"2300 KEY BLVD"},"coordinates":[6458,6503]},{"type":"Point","properties":{"name":"Lee Comm. Center","OBJECTID":6,"CODE":6,"SYMBOL":"CC","SENIORCENTER":1,"ADDRESS":"5722 LEE HWY"},"coordinates":[1757,6754]},{"type":"Point","properties":{"name":"Long Branch Nature Center","OBJECTID":7,"CODE":14,"SYMBOL":"NC","SENIORCENTER":0,"ADDRESS":"625 S CARLIN SPRINGS RD"},"coordinates":[3488,2958]},{"type":"Point","properties":{"name":"Long Branch Elementary School","OBJECTID":8,"CODE":5,"SYMBOL":"ES","SENIORCENTER":0,"ADDRESS":"33 N FILLMORE ST"},"coordinates":[6267,4558]},{"type":"Point","properties":{"name":"Lubber Run Comm. Center","OBJECTID":9,"CODE":6,"SYMBOL":"CC","SENIORCENTER":0,"ADDRESS":"300 N PARK DR"},"coordinates":[4205,4339]},{"type":"Point","properties":{"name":"Madison Comm. Center","OBJECTID":10,"CODE":6,"SYMBOL":"CC","SENIORCENTER":1,"ADDRESS":"3829 N STAFFORD ST"},"coordinates":[3402,9999]},{"type":"Point","properties":{"name":"Glencarlyn Library","OBJECTID":11,"CODE":2,"SYMBOL":"LB","SENIORCENTER":0,"ADDRESS":"300 S KENSINGTON ST"},"coordinates":[3211,3270]},{"type":"Point","properties":{"name":"McKinley Elementary School","OBJECTID":12,"CODE":5,"SYMBOL":"ES","SENIORCENTER":0,"ADDRESS":"1030 N MCKINLEY RD"},"coordinates":[1476,4963]},{"type":"Point","properties":{"name":"Nottingham Elementary School","OBJECTID":13,"CODE":5,"SYMBOL":"ES","SENIORCENTER":0,"ADDRESS":"1601 WILSON BLVD"},"coordinates":[1128,7442]},{"type":"Point","properties":{"name":"Oakridge Elementary School","OBJECTID":14,"CODE":5,"SYMBOL":"ES","SENIORCENTER":0,"ADDRESS":"1414 24TH ST S"},"coordinates":[7832,1785]},{"type":"Point","properties":{"name":"Arlington Science Focus School","OBJECTID":15,"CODE":5,"SYMBOL":"AES","SENIORCENTER":0,"ADDRESS":"1501 N LINCOLN ST"},"coordinates":[5170,6264]},{"type":"Point","properties":{"name":"Swanson Middle School","OBJECTID":16,"CODE":5,"SYMBOL":"MS","SENIORCENTER":0,"ADDRESS":"5800 N WASHINGTON BLVD"},"coordinates":[2123,5468]},{"type":"Point","properties":{"name":"Taylor Elementary School","OBJECTID":17,"CODE":5,"SYMBOL":"ES","SENIORCENTER":0,"ADDRESS":"2600 N STUART ST"},"coordinates":[4227,8132]},{"type":"Point","properties":{"name":"Tuckahoe Elementary School","OBJECTID":18,"CODE":5,"SYMBOL":"ES","SENIORCENTER":0,"ADDRESS":"6550 26TH ST N"},"coordinates":[444,6505]},{"type":"Point","properties":{"name":"Wakefield High School","OBJECTID":19,"CODE":5,"SYMBOL":"HS","SENIORCENTER":0,"ADDRESS":"4901 S CHESTERFIELD RD"},"coordinates":[4593,1397]},{"type":"Point","properties":{"name":"Claremont Elementary School","OBJECTID":20,"CODE":5,"SYMBOL":"AES","SENIORCENTER":0,"ADDRESS":"4700 S CHESTERFIELD RD"},"coordinates":[4867,1476]},{"type":"Point","properties":{"name":"Ashlawn Elementary School","OBJECTID":21,"CODE":5,"SYMBOL":"ES","SENIORCENTER":0,"ADDRESS":"5950 8TH RD N"},"coordinates":[2384,4319]},{"type":"Point","properties":{"name":"Williamsburg Middle School","OBJECTID":22,"CODE":5,"SYMBOL":"MS","SENIORCENTER":0,"ADDRESS":"3600 N HARRISON ST"},"coordinates":[1468,8462]},{"type":"Point","properties":{"name":"Yorktown High School","OBJECTID":23,"CODE":5,"SYMBOL":"HS","SENIORCENTER":0,"ADDRESS":"5201 N 28TH ST"},"coordinates":[2027,7690]},{"type":"Point","properties":{"name":"Wilson Senior Center","OBJECTID":24,"CODE":7,"SYMBOL":"OC","SENIORCENTER":0,"ADDRESS":"3300 WILSON BLVD"},"coordinates":[7257,6766]},{"type":"Point","properties":{"name":"Woodmont","OBJECTID":25,"CODE":7,"SYMBOL":"OC","SENIORCENTER":0,"ADDRESS":"2422 N FILLMORE ST"},"coordinates":[5566,7638]},{"type":"Point","properties":{"name":"Fenwick Center","OBJECTID":26,"CODE":7,"SYMBOL":"OC","SENIORCENTER":0,"ADDRESS":"800 S WALTER REED DR"},"coordinates":[6364,3459]},{"type":"Point","properties":{"name":"Abingdon Elementary School","OBJECTID":27,"CODE":5,"SYMBOL":"ES","SENIORCENTER":0,"ADDRESS":"3035 S ABINGDON ST"},"coordinates":[5728,569]},{"type":"Point","properties":{"name":"Barcroft Elementary School","OBJECTID":28,"CODE":5,"SYMBOL":"ES","SENIORCENTER":0,"ADDRESS":"625 S WAKEFIELD ST"},"coordinates":[4717,3040]},{"type":"Point","properties":{"name":"Dawson Terrace Comm.","OBJECTID":29,"CODE":6,"SYMBOL":"CC","SENIORCENTER":0,"ADDRESS":"2133 N TAFT ST"},"coordinates":[6811,7279]},{"type":"Point","properties":{"name":"Arlington Traditional School","OBJECTID":30,"CODE":5,"SYMBOL":"AES","SENIORCENTER":0,"ADDRESS":"855 N EDISON ST"},"coordinates":[3549,5094]},{"type":"Point","properties":{"name":"Fairlington Comm. Center","OBJECTID":31,"CODE":6,"SYMBOL":"CC","SENIORCENTER":0,"ADDRESS":"3308 S STAFFORD ST"},"coordinates":[6452,0]},{"type":"Point","properties":{"name":"Water Pollution Control Plant","OBJECTID":32,"CODE":4,"SYMBOL":"CO","SENIORCENTER":0,"ADDRESS":"3402 S GLEBE RD"},"coordinates":[8993,984]},{"type":"Point","properties":{"name":"Arlington Hospital","OBJECTID":33,"CODE":8,"SYMBOL":"H","SENIORCENTER":0,"ADDRESS":"1701 N GEORGE MASON DR"},"coordinates":[3097,6144]},{"type":"Point","properties":{"name":"Arl. Courthouse Metro","OBJECTID":34,"CODE":3,"SYMBOL":"MOS","SENIORCENTER":0,"ADDRESS":"2100 WILSON BLVD"},"coordinates":[6615,6366]},{"type":"Point","properties":{"name":"Randolph Elementary School","OBJECTID":35,"CODE":5,"SYMBOL":"ES","SENIORCENTER":0,"ADDRESS":"1306 S QUINCY ST"},"coordinates":[5515,2449]},{"type":"Point","properties":{"name":"Arlington Urgent Care","OBJECTID":36,"CODE":8,"SYMBOL":"H","SENIORCENTER":0,"ADDRESS":"601 S CARLIN SPRINGS RD"},"coordinates":[3172,2931]},{"type":"Point","properties":{"name":"Gunston Middle School","OBJECTID":37,"CODE":5,"SYMBOL":"MS","SENIORCENTER":0,"ADDRESS":"2700 S LANG ST"},"coordinates":[7877,1516]},{"type":"Point","properties":{"name":"Gunston Center","OBJECTID":38,"CODE":6,"SYMBOL":"CC","SENIORCENTER":0,"ADDRESS":"2700 S LANG ST"},"coordinates":[7970,1481]},{"type":"Point","properties":{"name":"Arlington Art Center","OBJECTID":39,"CODE":7,"SYMBOL":"OC","SENIORCENTER":0,"ADDRESS":"3550 WILSON BLVD"},"coordinates":[5197,5324]},{"type":"Point","properties":{"name":"Ft. Smith Park","OBJECTID":40,"CODE":7,"SYMBOL":"OC","SENIORCENTER":0,"ADDRESS":"2411 24TH ST N"},"coordinates":[6123,7533]},{"type":"Point","properties":{"name":"DHS Offices","OBJECTID":41,"CODE":4,"SYMBOL":"CO","SENIORCENTER":0,"ADDRESS":"1800 N EDISON ST"},"coordinates":[2993,6389]},{"type":"Point","properties":{"name":"Central Library","OBJECTID":42,"CODE":2,"SYMBOL":"LB","SENIORCENTER":0,"ADDRESS":"1015 N QUINCY ST"},"coordinates":[4799,5600]},{"type":"Point","properties":{"name":"Court Square West","OBJECTID":43,"CODE":4,"SYMBOL":"CO","SENIORCENTER":0,"ADDRESS":"1400 N UHLE ST"},"coordinates":[6617,6215]},{"type":"Point","properties":{"name":"East Falls Church Metro","OBJECTID":44,"CODE":3,"SYMBOL":"MOS","SENIORCENTER":0,"ADDRESS":"2001 N SYCAMORE ST"},"coordinates":[650,5788]},{"type":"Point","properties":{"name":"Ballston Metro","OBJECTID":45,"CODE":3,"SYMBOL":"MOS","SENIORCENTER":0,"ADDRESS":"4230 FAIRFAX DR"},"coordinates":[4420,5334]},{"type":"Point","properties":{"name":"Virginia Square Metro","OBJECTID":46,"CODE":3,"SYMBOL":"MOS","SENIORCENTER":0,"ADDRESS":"3600 FAIRFAX DR"},"coordinates":[5091,5447]},{"type":"Point","properties":{"name":"Clarendon Metro","OBJECTID":47,"CODE":3,"SYMBOL":"MOS","SENIORCENTER":0,"ADDRESS":"3100 WILSON BLVD"},"coordinates":[5763,5916]},{"type":"Point","properties":{"name":"Rosslyn Metro","OBJECTID":48,"CODE":3,"SYMBOL":"MOBS","SENIORCENTER":0,"ADDRESS":"1850 N MOORE ST"},"coordinates":[7715,6908]},{"type":"Point","properties":{"name":"Arlington Nat. Cem. Metro","OBJECTID":49,"CODE":3,"SYMBOL":"MB","SENIORCENTER":0,"ADDRESS":"1000 N MEMORIAL DR"},"coordinates":[8410,5599]},{"type":"Point","properties":{"name":"Pentagon Metro","OBJECTID":50,"CODE":3,"SYMBOL":"MYB","SENIORCENTER":0,"ADDRESS":"2 S ROTARY RD"},"coordinates":[9152,3896]},{"type":"Point","properties":{"name":"Pentagon City Metro","OBJECTID":51,"CODE":3,"SYMBOL":"MYB","SENIORCENTER":0,"ADDRESS":"1250 S HAYES ST"},"coordinates":[8707,3163]},{"type":"Point","properties":{"name":"Crystal City Metro","OBJECTID":52,"CODE":3,"SYMBOL":"MYB","SENIORCENTER":0,"ADDRESS":"1750 S CLARK ST"},"coordinates":[9407,2641]},{"type":"Point","properties":{"name":"National Airport Metro","OBJECTID":53,"CODE":3,"SYMBOL":"MYB","SENIORCENTER":0,"ADDRESS":"2400 S SMITH BLVD"},"coordinates":[9999,2223]},{"type":"Point","properties":{"name":"Courthouse Plaza 1","OBJECTID":54,"CODE":4,"SYMBOL":"CO","SENIORCENTER":0,"ADDRESS":"2100 CLARENDON BLVD"},"coordinates":[6585,6297]},{"type":"Point","properties":{"name":"Plaza Library & Arlington Shop","OBJECTID":55,"CODE":2,"SYMBOL":"LB","SENIORCENTER":0,"ADDRESS":"2100 CLARENDON BLVD"},"coordinates":[6543,6285]},{"type":"Point","properties":{"name":"Arlington Mill Community Center","OBJECTID":56,"CODE":6,"SYMBOL":"CC","SENIORCENTER":1,"ADDRESS":"4975 COLUMBIA PIKE"},"coordinates":[4328,2518]},{"type":"Point","properties":{"name":"Barcroft Sport & Fitness Center","OBJECTID":57,"CODE":6,"SYMBOL":"CC","SENIORCENTER":0,"ADDRESS":"4200 S FOUR MILE RUN"},"coordinates":[5214,1814]},{"type":"Point","properties":{"name":"Culpepper Garden Center","OBJECTID":58,"CODE":7,"SYMBOL":"OC","SENIORCENTER":1,"ADDRESS":"4435 N PERSHING DR"},"coordinates":[4422,4063]},{"type":"Point","properties":{"name":"Wakefield High School Swimming Pool","OBJECTID":59,"CODE":9,"SYMBOL":"SP","SENIORCENTER":0,"ADDRESS":"4901 S CHESTERFIELD RD"},"coordinates":[4478,1527]},{"type":"Point","properties":{"name":"Yorktown High School Swimming Pool","OBJECTID":60,"CODE":9,"SYMBOL":"SP","SENIORCENTER":0,"ADDRESS":"5201 N 28TH ST"},"coordinates":[1935,7604]},{"type":"Point","properties":{"name":"Upton Hills Regional Park Swimming Pool","OBJECTID":61,"CODE":9,"SYMBOL":"SP","SENIORCENTER":0,"ADDRESS":"6060 WILSON BLVD"},"coordinates":[1771,4102]},{"type":"Point","properties":{"name":"Arlington Post Office","OBJECTID":62,"CODE":10,"SYMBOL":"PO","SENIORCENTER":0,"ADDRESS":"3118 WASHINGTON BLVD"},"coordinates":[5759,5738]},{"type":"Point","properties":{"name":"Buckingham","OBJECTID":63,"CODE":10,"SYMBOL":"PO","SENIORCENTER":0,"ADDRESS":"235 N GLEBE RD"},"coordinates":[5001,4411]},{"type":"Point","properties":{"name":"Court House Arlington","OBJECTID":64,"CODE":10,"SYMBOL":"PO","SENIORCENTER":0,"ADDRESS":"2043 WILSON BLVD"},"coordinates":[6704,6481]},{"type":"Point","properties":{"name":"Crystal City","OBJECTID":65,"CODE":10,"SYMBOL":"PO","SENIORCENTER":0,"ADDRESS":"1632 CRYSTAL SQUARE ARC"},"coordinates":[9562,2662]},{"type":"Point","properties":{"name":"Fort Myer","OBJECTID":66,"CODE":10,"SYMBOL":"PO","SENIORCENTER":0,"ADDRESS":"217 JACKSON AVE"},"coordinates":[6800,5422]},{"type":"Point","properties":{"name":"North Post Office","OBJECTID":67,"CODE":10,"SYMBOL":"PO","SENIORCENTER":0,"ADDRESS":"2200 N GEORGE MASON DR"},"coordinates":[2605,6810]},{"type":"Point","properties":{"name":"Preston King","OBJECTID":68,"CODE":10,"SYMBOL":"PO","SENIORCENTER":0,"ADDRESS":"5877 WASHINGTON BLVD"},"coordinates":[1922,5780]},{"type":"Point","properties":{"name":"Shirlington Postal Annex - Delivery","OBJECTID":69,"CODE":10,"SYMBOL":"PO","SENIORCENTER":0,"ADDRESS":"2565 S SHIRLINGTON RD"},"coordinates":[6836,1318]},{"type":"Point","properties":{"name":"Shirlington","OBJECTID":70,"CODE":10,"SYMBOL":"PO","SENIORCENTER":0,"ADDRESS":"2850 S QUINCY ST"},"coordinates":[6448,668]},{"type":"Point","properties":{"name":"South Post Office","OBJECTID":71,"CODE":10,"SYMBOL":"PO","SENIORCENTER":0,"ADDRESS":"1210 S GLEBE RD"},"coordinates":[5999,2749]},{"type":"Point","properties":{"name":"Gulf Branch Nature Center","OBJECTID":72,"CODE":14,"SYMBOL":"NC","SENIORCENTER":0,"ADDRESS":"3608 N MILITARY RD"},"coordinates":[3617,9549]},{"type":"Point","properties":{"name":"Walter Reed Comm. Center","OBJECTID":73,"CODE":6,"SYMBOL":"CC","SENIORCENTER":1,"ADDRESS":"2909 16TH ST S"},"coordinates":[6506,2627]},{"type":"Point","properties":{"name":"Clarendon House","OBJECTID":74,"CODE":7,"SYMBOL":"OC","SENIORCENTER":0,"ADDRESS":"3141 N 10TH ST"},"coordinates":[5651,5649]},{"type":"Point","properties":{"name":"Argus House","OBJECTID":75,"CODE":7,"SYMBOL":"OC","SENIORCENTER":0,"ADDRESS":"1527 CLARENDON BLVD"},"coordinates":[7447,6687]},{"type":"Point","properties":{"name":"Washington-Lee High School Swimming Pool","OBJECTID":76,"CODE":9,"SYMBOL":"SP","SENIORCENTER":0,"ADDRESS":"1300 N QUINCY ST"},"coordinates":[4663,5897]},{"type":"Point","properties":{"name":"Washington-Lee High School","OBJECTID":77,"CODE":5,"SYMBOL":"HS","SENIORCENTER":0,"ADDRESS":"1300 N QUINCY ST"},"coordinates":[4588,5956]},{"type":"Point","properties":{"name":"Recycling Center","OBJECTID":78,"CODE":11,"SYMBOL":"RC","SENIORCENTER":0,"ADDRESS":"530 N QUINCY ST"},"coordinates":[4622,2446]},{"type":"Point","properties":{"name":"Fire Station 6","OBJECTID":79,"CODE":1,"SYMBOL":"FS","SENIORCENTER":0,"ADDRESS":"6950 LITTLE FALLS RD"},"coordinates":[0,5948]},{"type":"Point","properties":{"name":"Fire Station 8","OBJECTID":80,"CODE":1,"SYMBOL":"FS","SENIORCENTER":0,"ADDRESS":"4845 LEE HWY"},"coordinates":[3111,6995]},{"type":"Point","properties":{"name":"Fire Station 10","OBJECTID":81,"CODE":1,"SYMBOL":"FS","SENIORCENTER":0,"ADDRESS":"1599 WILSON BLVD"},"coordinates":[7315,6770]},{"type":"Point","properties":{"name":"Fire Station 2","OBJECTID":82,"CODE":1,"SYMBOL":"FS","SENIORCENTER":0,"ADDRESS":"4805 WILSON BLVD"},"coordinates":[3706,4967]},{"type":"Point","properties":{"name":"Fire Station 4 & HDQTRS","OBJECTID":83,"CODE":1,"SYMBOL":"FS","SENIORCENTER":0,"ADDRESS":"3121 N 10TH ST"},"coordinates":[5683,5641]},{"type":"Point","properties":{"name":"Fire Station 1","OBJECTID":84,"CODE":1,"SYMBOL":"FS","SENIORCENTER":0,"ADDRESS":"500 S GLEBE RD"},"coordinates":[5713,3634]},{"type":"Point","properties":{"name":"Fire Station 9","OBJECTID":85,"CODE":1,"SYMBOL":"FS","SENIORCENTER":0,"ADDRESS":"1900 S WALTER REED DR"},"coordinates":[6051,1923]},{"type":"Point","properties":{"name":"Fire Station 5","OBJECTID":86,"CODE":1,"SYMBOL":"FS","SENIORCENTER":0,"ADDRESS":"1750 S HAYES ST"},"coordinates":[8850,2579]},{"type":"Point","properties":{"name":"Fire Station #7","OBJECTID":87,"CODE":1,"SYMBOL":"FS","SENIORCENTER":0,"ADDRESS":"3116 S ABINGDON ST"},"coordinates":[5730,237]},{"type":"Point","properties":{"name":"Campbell Elementary School","OBJECTID":88,"CODE":5,"SYMBOL":"AES","SENIORCENTER":0,"ADDRESS":"737 S CARLIN SPRINGS RD"},"coordinates":[3218,2654]},{"type":"Point","properties":{"name":"Carlin Springs Elementary School","OBJECTID":89,"CODE":5,"SYMBOL":"ES","SENIORCENTER":0,"ADDRESS":"5995 5TH RD S"},"coordinates":[2704,3198]},{"type":"Point","properties":{"name":"Cherrydale Library","OBJECTID":90,"CODE":2,"SYMBOL":"LB","SENIORCENTER":0,"ADDRESS":"2190 N MILITARY RD"},"coordinates":[4594,7226]},{"type":"Point","properties":{"name":"H-B Woodlawn Secondary Program","OBJECTID":91,"CODE":5,"SYMBOL":"AMS","SENIORCENTER":0,"ADDRESS":"4100 VACATION LN"},"coordinates":[4383,7402]},{"type":"Point","properties":{"name":"Glebe Elementary School","OBJECTID":92,"CODE":5,"SYMBOL":"ES","SENIORCENTER":0,"ADDRESS":"1770 N GLEBE RD"},"coordinates":[3586,6533]},{"type":"Point","properties":{"name":"Patrick Henry Elementary School","OBJECTID":93,"CODE":5,"SYMBOL":"ES","SENIORCENTER":0,"ADDRESS":"701 S HIGHLAND ST"},"coordinates":[6259,3532]},{"type":"Point","properties":{"name":"Jefferson Middle School","OBJECTID":94,"CODE":5,"SYMBOL":"MS","SENIORCENTER":0,"ADDRESS":"125 S OLD GLEBE RD"},"coordinates":[5635,3993]},{"type":"Point","properties":{"name":"Thomas Jefferson Community Center","OBJECTID":95,"CODE":6,"SYMBOL":"CC","SENIORCENTER":0,"ADDRESS":"3501 2ND ST S"},"coordinates":[5709,3966]},{"type":"Point","properties":{"name":"Langston Brown Comm. Center","OBJECTID":96,"CODE":6,"SYMBOL":"CC","SENIORCENTER":1,"ADDRESS":"2121 CULPEPER ST"},"coordinates":[3149,6910]},{"type":"Point","properties":{"name":"Carlin Hall Community Center","OBJECTID":97,"CODE":6,"SYMBOL":"CC","SENIORCENTER":0,"ADDRESS":"5711 S 4TH ST"},"coordinates":[3189,3224]},{"type":"Point","properties":{"name":"Bishop O'Connell","OBJECTID":98,"CODE":5,"SYMBOL":"HS","SENIORCENTER":0,"ADDRESS":"6600 LITTLE FALLS RD"},"coordinates":[292,6752]},{"type":"Point","properties":{"name":"Shirlington Library","OBJECTID":99,"CODE":2,"SYMBOL":"LB","SENIORCENTER":0,"ADDRESS":"4200 CAMPBELL AVE"},"coordinates":[6188,725]},{"type":"Point","properties":{"name":"Columbia Pike Library","OBJECTID":100,"CODE":2,"SYMBOL":"LB","SENIORCENTER":0,"ADDRESS":"816 S WALTER REED DR"},"coordinates":[6352,3374]},{"type":"Point","properties":{"name":"Arlington Career Center","OBJECTID":101,"CODE":2,"SYMBOL":"OC","SENIORCENTER":0,"ADDRESS":"816 S WALTER REED DR"},"coordinates":[6328,3326]},{"type":"Point","properties":{"name":"Recycling Center","OBJECTID":102,"CODE":11,"SYMBOL":"RC","SENIORCENTER":0,"ADDRESS":"QUINCY PARK"},"coordinates":[4728,5751]},{"type":"Point","properties":{"name":"Walter Reed Elementary School","OBJECTID":103,"CODE":5,"SYMBOL":"AES","SENIORCENTER":0,"ADDRESS":"1644 MCKINLEY RD"},"coordinates":[1895,5901]},{"type":"Point","properties":{"name":"Westover Library","OBJECTID":104,"CODE":2,"SYMBOL":"LB","SENIORCENTER":0,"ADDRESS":"1800 N LEXINGTON ST"},"coordinates":[1849,5820]},{"type":"Point","properties":{"name":"Drew Model School","OBJECTID":105,"CODE":5,"SYMBOL":"AES","SENIORCENTER":0,"ADDRESS":"3500 23RD ST S"},"coordinates":[6465,1554]},{"type":"Point","properties":{"name":"DHS HDQRTRS","OBJECTID":106,"CODE":4,"SYMBOL":"CO","SENIORCENTER":0,"ADDRESS":"3033 WILSON BLVD"},"coordinates":[6769,4371]},{"type":"Point","properties":{"name":"Rosslyn","OBJECTID":107,"CODE":10,"SYMBOL":"PO","SENIORCENTER":0,"ADDRESS":"1101 WILSON BLVD"},"coordinates":[7884,6904]},{"type":"Point","properties":{"name":"ARTISPHERE","OBJECTID":108,"CODE":7,"SYMBOL":"OC","SENIORCENTER":0,"ADDRESS":"1101 WILSON BLVD"},"coordinates":[7886,6843]},{"type":"Point","properties":{"name":"Trades Center","OBJECTID":109,"CODE":4,"SYMBOL":"CO","SENIORCENTER":0,"ADDRESS":"4300 S 28TH ST"},"coordinates":[6069,907]},{"type":"Point","properties":{"name":"Detention Center","OBJECTID":110,"CODE":4,"SYMBOL":"CO","SENIORCENTER":0,"ADDRESS":"1435 N COURTHOUSE RD"},"coordinates":[6756,6311]},{"type":"Point","properties":{"name":"Judical Center","OBJECTID":111,"CODE":4,"SYMBOL":"CO","SENIORCENTER":0,"ADDRESS":"1425 N COURTHOUSE RD"},"coordinates":[6763,6237]},{"type":"Point","properties":{"name":"Fire Station 3","OBJECTID":112,"CODE":1,"SYMBOL":"FS","SENIORCENTER":0,"ADDRESS":"4100 OLD DOMINION DR"},"coordinates":[4527,7103]},{"type":"Point","properties":{"name":"Eads","OBJECTID":113,"CODE":10,"SYMBOL":"PO","SENIORCENTER":0,"ADDRESS":"1301 S FERN ST"},"coordinates":[9017,3007]},{"type":"Point","properties":{"name":"Carver Community Center","OBJECTID":114,"CODE":6,"SYMBOL":"CC","SENIORCENTER":1,"ADDRESS":"1415 S QUEEN ST"},"coordinates":[7738,3091]},{"type":"Point","properties":{"name":"Hoffman-Boston Elementary School","OBJECTID":115,"CODE":5,"SYMBOL":"ES","SENIORCENTER":0,"ADDRESS":"1415 S QUEEN ST"},"coordinates":[7717,3039]},{"type":"Point","properties":{"name":"Aurora Hills Library","OBJECTID":116,"CODE":2,"SYMBOL":"LB","SENIORCENTER":0,"ADDRESS":"735 S 18TH ST"},"coordinates":[8781,2580]},{"type":"Point","properties":{"name":"Aurora Hills Comm. Center","OBJECTID":117,"CODE":6,"SYMBOL":"CC","SENIORCENTER":1,"ADDRESS":"735 18TH ST S"},"coordinates":[8772,2607]}]}},"arcs":[],"transform":{"scale":[0.000012014101410141585,0.000008877087708770436],"translate":[-77.164485,38.834572]},"bbox":[-77.164485,38.834572,-77.044356,38.923334]}